fid,ogc_fid,sa2_main16,sa2_5dig16,sa2_name16,sa3_code16,sa3_name16,sa4_code16,sa4_name16,gcc_code16,gcc_name16,ste_code16,ste_name16,areasqkm16,Long,Lat,EJD_Total,EJD_AgriFor,EJD_Mining,EJD_Manufacturing,EJD_Util,EJD_Constr,EJD_Wholesale,EJD_Retail,EJD_AccoFood,EJD_Logistic,EJD_IT,EJD_Fin,EJD_RealEst,EJD_ProfServ,EJD_Admin,EJD_GovDef,EJD_Edu,EJD_Health,EJD_Arts,EJD_Other,EMP_Total_2016,EMP_Total_2021,ERP_2014,ERP_2015,ERP_2016,ERP_2017,ERP_2018,ERP_2019,ERP_2020,EJD_Total_Level
1,2229,801051054,81054,Dickson,80105,North Canberra,801,Australian Capital Territory,8ACTE,Australian Capital Territory,8,Australian Capital Territory,1.5779,149.141742,-35.25280542,50333.96377,483.1695619,182.0631473,1891.44019,397.5980189,2704.618313,959.9980028,4077.600955,3786.992726,1642.218567,1119.590731,1562.704437,844.3271446,4597.224219,1376.08846,10551.82401,4704.838074,5189.068973,860.9936073,1618.154096,0,0,2228,2245,2263,2321,2385,2640,2779,Lv 8
2,2230,801051055,81055,Downer,80105,North Canberra,801,Australian Capital Territory,8ACTE,Australian Capital Territory,8,Australian Capital Territory,1.6342,149.1435405,-35.2439517,44403.29816,477.2222413,182.7155344,1834.445894,374.0783297,2596.838808,938.8005784,3705.291972,3103.26465,1548.073462,965.0756223,1441.220833,708.6618944,4056.178267,1247.168801,8266.224032,4148.868887,4887.185969,792.8898581,1485.902116,0,0,3637,3643,3713,3797,3884,3999,4016,Lv 7
3,2282,801081133,81133,Scrivener,80108,Weston Creek,801,Australian Capital Territory,8ACTE,Australian Capital Territory,8,Australian Capital Territory,1.5532,149.0716671,-35.31215099,41338.32475,451.4392129,172.8237125,1699.33768,329.0630985,2241.758073,842.1529722,3393.404266,2762.116526,1373.705742,789.9742617,1324.272781,641.1495462,3658.945068,1114.309902,8293.579639,3632.297359,5029.907077,740.7620882,1360.938258,0,0,6,7,3,3,3,3,3,Lv 7
4,2283,801091099,81099,Chifley,80109,Woden Valley,801,Australian Capital Territory,8ACTE,Australian Capital Territory,8,Australian Capital Territory,1.5889,149.0768352,-35.35339788,43984.96622,443.3885287,171.674255,1715.432934,337.6021966,2353.762622,856.3735201,3951.120526,2951.975249,1395.730552,774.6156771,1350.493406,673.1700432,3575.116555,1155.532441,9188.477135,3666.650655,5687.717024,707.2594244,1477.263496,0,0,2592,2538,2471,2464,2462,2481,2506,Lv 7
5,2185,801011014,81014,Higgins,80101,Belconnen,801,Australian Capital Territory,8ACTE,Australian Capital Territory,8,Australian Capital Territory,1.6743,149.0272025,-35.23241552,36984.16986,452.6590259,173.8281484,1599.585033,320.2482932,2177.048861,822.5682401,3391.248829,2601.355501,1337.802791,711.7627676,1276.720298,594.6735562,3342.532018,1034.973689,6020.863349,3534.529009,4319.080909,628.8869463,1249.126872,0,0,3128,3107,3090,3078,3068,3090,3109,Lv 6
6,2186,801011015,81015,Holt,80101,Belconnen,801,Australian Capital Territory,8ACTE,Australian Capital Territory,8,Australian Capital Territory,3.2956,149.0118783,-35.22441377,36248.39018,466.0658725,175.4005665,1646.060741,318.2773538,2154.741168,830.6241622,3435.205293,2648.916734,1341.508475,693.9833373,1276.897909,590.4326797,3182.501345,1020.048203,5378.409668,3485.516182,4341.478096,624.6200327,1237.38263,0,0,4734,4645,4612,4594,4611,4756,4863,Lv 6
7,2191,801011020,81020,Macquarie,80101,Belconnen,801,Australian Capital Territory,8ACTE,Australian Capital Territory,8,Australian Capital Territory,1.7004,149.0632451,-35.2511858,41650.92628,456.3305682,175.100237,1663.941336,326.4405963,2290.640394,868.1939377,3858.258824,2913.537147,1427.706235,795.0595339,1374.823668,660.1528948,3851.812367,1120.934772,7359.96332,4052.938744,4833.795549,718.8009051,1395.920111,0,0,2753,2755,2763,2790,2827,2869,2824,Lv 7
8,2195,801011024,81024,Scullin,80101,Belconnen,801,Australian Capital Territory,8ACTE,Australian Capital Territory,8,Australian Capital Territory,1.426,149.039001,-35.23462256,38496.8409,454.6178952,174.596989,1615.754309,314.7516623,2203.803477,851.2426264,3570.180003,2681.127184,1388.026771,739.2163302,1328.849254,619.5627628,3547.933994,1062.537558,6420.624017,3648.601742,4487.775246,653.6088973,1304.698674,0,0,2941,2943,2953,2991,3031,3011,3020,Lv 6
9,2197,801011026,81026,Weetangera,80101,Belconnen,801,Australian Capital Territory,8ACTE,Australian Capital Territory,8,Australian Capital Territory,1.5832,149.0497274,-35.25015166,40527.76484,453.3847014,174.8139074,1648.058345,323.5459345,2262.070694,863.5119784,3676.022774,2812.970652,1413.054062,775.9401572,1359.661186,651.3544771,3764.202104,1110.956075,7200.440635,3847.659885,4656.839152,691.6460668,1352.045941,0,0,2668,2649,2636,2655,2652,2656,2650,Lv 6
10,2198,801011111,81111,Molonglo Corridor,80101,Belconnen,801,Australian Capital Territory,8ACTE,Australian Capital Territory,8,Australian Capital Territory,24.9139,149.0204832,-35.25608906,37048.95581,454.9632715,173.7764464,1604.1868,354.1696772,2146.511402,817.786455,3307.593368,2565.691708,1329.637235,718.2984877,1271.649199,591.7653823,3328.484766,1031.328709,6255.695478,3517.31227,4315.180047,634.7139641,1241.748093,0,0,11,12,12,12,12,12,12,Lv 6
11,2199,801011112,81112,West Belconnen,80101,Belconnen,801,Australian Capital Territory,8ACTE,Australian Capital Territory,8,Australian Capital Territory,11.3504,148.9852417,-35.22100548,33599.71819,493.88409,174.2792112,1618.736396,303.6728825,2047.775285,816.1714685,3118.573938,2358.821498,1288.721045,658.8027999,1229.128298,549.1905506,2956.144585,960.447669,4900.818698,3120.404389,3961.436024,570.9415386,1159.521393,0,0,15,15,15,15,15,15,115,Lv 5
12,2200,801031031,81031,Hume,80103,Canberra East,801,Australian Capital Territory,8ACTE,Australian Capital Territory,8,Australian Capital Territory,8.5832,149.1658158,-35.38548454,40423.0901,435.6634228,166.4078784,1948.320877,483.6185842,3133.752028,988.3599594,3310.652362,2481.220767,1862.502817,803.6493955,1142.971389,600.0668571,3260.356139,1066.055659,7865.206461,3132.636406,4210.001243,612.7564818,1369.987795,0,0,388,410,434,434,434,434,434,Lv 6
13,2201,801031032,81032,Kowen,80103,Canberra East,801,Australian Capital Territory,8ACTE,Australian Capital Territory,8,Australian Capital Territory,77.047,149.3136136,-35.31085352,27180.59107,406.0712121,162.6411874,1434.458058,256.8681061,1759.877168,700.0238739,2510.565575,1877.579341,1105.015399,531.7476555,1016.528969,452.3556226,2296.482908,789.0422762,3779.346927,2348.864041,3240.651492,444.7270345,950.5330483,0,0,38,38,38,38,38,38,38,Lv 5
14,2287,801091103,81103,Hughes,80109,Woden Valley,801,Australian Capital Territory,8ACTE,Australian Capital Territory,8,Australian Capital Territory,1.7894,149.0949098,-35.33268658,48666.03028,457.6478238,174.0328637,1821.564241,349.1248259,2436.422809,879.2437431,3848.253068,3103.407627,1442.431463,864.6814496,1448.300285,731.390951,4166.80387,1251.611933,10359.48205,4048.759922,7256.978499,782.0231491,1578.748264,0,0,3065,3048,3018,3016,3006,3013,3004,Lv 7
15,2294,801091110,81110,Torrens,80109,Woden Valley,801,Australian Capital Territory,8ACTE,Australian Capital Territory,8,Australian Capital Territory,1.3013,149.0877338,-35.37202703,39016.0711,434.5030893,169.9790585,1641.019975,328.2408504,2211.870843,816.9119022,3516.330745,2653.362309,1337.245836,704.6215911,1256.076265,609.5926455,3210.639177,1053.979427,7295.873466,3445.646898,4945.27559,627.5683617,1331.366077,0,0,2288,2242,2213,2198,2185,2184,2162,Lv 6
16,2203,801031114,81114,Canberra Airport,80103,Canberra East,801,Australian Capital Territory,8ACTE,Australian Capital Territory,8,Australian Capital Territory,5.5374,149.1962486,-35.30403918,40509.47828,431.5725529,172.8056583,1690.79889,301.951004,2181.84342,944.3539365,3499.871928,2499.51723,1789.313041,716.5983887,1252.667362,616.1692172,4283.329014,1083.93127,8678.966529,3026.929872,4081.385032,575.5400222,1202.852668,0,0,87,91,99,99,99,99,99,Lv 6
17,2204,801031115,81115,Majura,80103,Canberra East,801,Australian Capital Territory,8ACTE,Australian Capital Territory,8,Australian Capital Territory,89.692,149.2103623,-35.2729296,31715.00485,464.4918637,182.6813835,1590.312156,274.1541299,2032.340412,796.6099858,3049.593265,2186.637238,1265.850918,614.4040364,1178.927786,517.1694091,2676.407691,930.3132968,4796.220344,2706.203896,3597.290911,511.2176408,1056.885868,0,0,170,171,179,181,187,187,207,Lv 5
18,2205,801041034,81034,Amaroo,80104,Gungahlin,801,Australian Capital Territory,8ACTE,Australian Capital Territory,8,Australian Capital Territory,2.5872,149.1280215,-35.16958802,35622.83293,458.8289631,178.1030654,1691.358451,311.5291116,2367.459698,848.8086252,3298.299196,2488.068693,1359.004951,710.9846377,1272.158552,582.1707502,3104.704506,1029.148898,5020.400141,3491.604947,4140.099252,610.1549469,1250.04403,0,0,5674,5687,5726,5787,5826,5838,5899,Lv 6
19,2172,801011001,81001,Aranda,80101,Belconnen,801,Australian Capital Territory,8ACTE,Australian Capital Territory,8,Australian Capital Territory,1.5631,149.0804043,-35.2581709,45606.09069,464.3689582,176.9654173,1705.244952,353.8412117,2401.306269,901.1266368,3874.105727,3123.249381,1501.260111,897.3590257,1449.308675,711.2968396,4298.528737,1221.152308,8888.18127,4614.496835,5123.934238,802.4276234,1475.949929,0,0,2477,2460,2447,2464,2464,2486,2501,Lv 7
20,2173,801011002,81002,Belconnen,80101,Belconnen,801,Australian Capital Territory,8ACTE,Australian Capital Territory,8,Australian Capital Territory,4.4261,149.0676194,-35.23566444,53087.91115,469.7834648,177.0862448,1742.660388,342.5180248,2499.562301,1077.335737,5300.527858,3683.503096,1764.47528,969.9198277,1743.750695,866.6640101,5549.324238,1314.352148,11132.4494,4476.162038,5608.424339,882.4600097,1713.861168,0,0,6332,6529,6743,7137,7527,7781,7634,Lv 8
21,2174,801011003,81003,Bruce,80101,Belconnen,801,Australian Capital Territory,8ACTE,Australian Capital Territory,8,Australian Capital Territory,5.7975,149.0908294,-35.24405301,49077.3055,466.2285378,177.7917721,1713.153472,353.7802897,2496.06305,909.1286045,3885.583623,3209.165762,1511.955703,987.6195013,1444.152953,712.9938437,4593.381371,1284.421575,8797.189196,5960.846793,6390.020212,957.4168307,1530.543505,0,0,7010,7071,7147,7409,7638,7852,7679,Lv 8
22,2175,801011004,81004,Charnwood,80101,Belconnen,801,Australian Capital Territory,8ACTE,Australian Capital Territory,8,Australian Capital Territory,1.8559,149.034124,-35.20018939,35097.72522,465.1363277,176.2784802,1651.078352,304.4315791,2170.202629,826.4928196,3313.480796,2544.323067,1329.20128,682.3917822,1250.736268,562.2391149,3064.586559,1008.939134,4987.20649,3409.037568,4154.778548,607.6805076,1217.271165,0,0,3074,3039,3004,2953,2893,2937,2860,Lv 6
23,2176,801011005,81005,Cook,80101,Belconnen,801,Australian Capital Territory,8ACTE,Australian Capital Territory,8,Australian Capital Territory,1.5831,149.0663913,-35.26008716,42147.28499,455.5087619,175.5065265,1673.611856,331.4199361,2311.250145,872.2954971,3759.559268,2906.301359,1431.253033,814.9792514,1377.772456,663.0257037,3899.611984,1133.140501,7657.887186,4129.112808,4884.063959,733.447693,1405.2726,0,0,2949,2919,2902,2870,2815,2798,2810,Lv 7
24,2177,801011006,81006,Dunlop,80101,Belconnen,801,Australian Capital Territory,8ACTE,Australian Capital Territory,8,Australian Capital Territory,3.5908,149.0198102,-35.19400579,34054.7358,461.6486447,175.7589551,1638.563357,299.3606965,2150.077002,820.6900769,3176.139652,2392.001332,1313.336487,670.8768471,1235.819439,551.9900836,2985.255852,993.093487,4809.162003,3229.220783,4038.085682,582.5684224,1185.733056,0,0,7273,7258,7253,7243,7193,7187,7131,Lv 6
25,2179,801011008,81008,Florey,80101,Belconnen,801,Australian Capital Territory,8ACTE,Australian Capital Territory,8,Australian Capital Territory,2.7554,149.0499961,-35.22588243,39265.36385,468.6932604,177.430587,1697.913884,321.292573,2293.098819,877.9677259,3637.812722,2742.180751,1425.155538,756.8869255,1359.928565,633.7868085,3567.882556,1092.522169,6343.183171,3851.929854,4537.869533,664.1311024,1333.124836,0,0,5065,4971,4893,4826,4802,4701,4655,Lv 6
26,2178,801011007,81007,Evatt,80101,Belconnen,801,Australian Capital Territory,8ACTE,Australian Capital Territory,8,Australian Capital Territory,3.0603,149.0689132,-35.21190547,39443.97491,470.7129996,178.459293,1716.160757,327.518985,2382.255185,880.1907536,3593.603437,2719.746178,1424.2876,773.6201574,1348.848672,631.8787121,3555.334788,1110.63609,6314.452493,3909.541565,4574.165161,683.5913113,1352.550223,0,0,5379,5354,5366,5361,5344,5276,5207,Lv 6
27,2184,801011013,81013,Hawker,80101,Belconnen,801,Australian Capital Territory,8ACTE,Australian Capital Territory,8,Australian Capital Territory,1.9563,149.036563,-35.24704753,39053.72971,452.765675,174.2772866,1634.340894,320.1970164,2210.379768,845.8437963,3577.471912,2750.611144,1375.587038,744.4102789,1324.753466,622.5240991,3591.591501,1073.751145,6645.492539,3774.161892,4524.469516,662.5295898,1308.697324,0,0,2952,2953,2960,2974,2984,2949,2982,Lv 6
28,2180,801011009,81009,Flynn (ACT),80101,Belconnen,801,Australian Capital Territory,8ACTE,Australian Capital Territory,8,Australian Capital Territory,2.0955,149.0438915,-35.20592526,36210.02737,466.64759,177.0465054,1671.413159,311.4811731,2236.93483,842.4651447,3330.436693,2523.941654,1352.682915,710.032979,1287.640023,585.1873909,3206.674389,1037.71039,5385.285431,3522.974579,4291.859018,627.5948384,1245.344931,0,0,3531,3467,3413,3369,3341,3371,3369,Lv 6
29,2181,801011010,81010,Fraser,80101,Belconnen,801,Australian Capital Territory,8ACTE,Australian Capital Territory,8,Australian Capital Territory,2.4751,149.045339,-35.19170153,34966.35328,464.9221759,176.557309,1660.54809,305.8500705,2219.951586,831.8364999,3262.19752,2481.871151,1334.256852,692.4318793,1248.043214,563.3971184,3055.396916,1016.267829,4935.33701,3388.967975,4130.290723,608.3707435,1220.570267,0,0,2118,2074,2028,1997,1971,1951,1960,Lv 6
30,2182,801011011,81011,Giralang,80101,Belconnen,801,Australian Capital Territory,8ACTE,Australian Capital Territory,8,Australian Capital Territory,2.4467,149.0959889,-35.21090183,38194.02691,471.9511029,179.2396755,1720.428465,323.7721767,2381.42714,874.3568662,3472.05437,2647.760921,1408.154876,762.4747068,1321.725048,613.6229866,3420.677564,1081.46841,5847.006153,3742.669145,4464.640676,671.9620836,1320.480879,0,0,3351,3348,3354,3350,3344,3310,3330,Lv 6
31,2183,801011012,81012,Gooromon,80101,Belconnen,801,Australian Capital Territory,8ACTE,Australian Capital Territory,8,Australian Capital Territory,9.9135,149.0608535,-35.18672485,37341.10115,472.3331712,178.5085827,1711.880287,324.7723745,2356.003797,861.7416138,3404.724038,2628.670994,1389.288678,747.7748746,1300.971478,602.5931734,3307.40773,1070.430118,5664.69595,3582.429835,4341.320235,657.8801704,1299.286148,0,0,6,6,7,7,7,7,7,Lv 6
32,2187,801011016,81016,Kaleen,80101,Belconnen,801,Australian Capital Territory,8ACTE,Australian Capital Territory,8,Australian Capital Territory,6.0268,149.1091756,-35.22781161,42554.52947,474.5869229,181.6398071,1803.062568,358.2727514,2572.869788,929.5847944,3757.854265,2919.359049,1509.178248,877.7941513,1398.64522,683.6064586,3860.030442,1211.112845,7109.684055,4204.442768,4863.50879,771.1160404,1474.266255,0,0,7448,7399,7369,7452,7425,7430,7459,Lv 7
33,2188,801011017,81017,Latham,80101,Belconnen,801,Australian Capital Territory,8ACTE,Australian Capital Territory,8,Australian Capital Territory,2.7312,149.0314427,-35.21652043,37207.88912,469.0846448,176.664255,1674.55784,317.6452932,2235.166069,853.0215611,3444.146678,2606.904572,1377.429385,723.1150435,1308.72349,600.1016449,3341.746729,1054.943243,5773.09118,3567.621168,4346.916099,640.7046216,1268.032625,0,0,3656,3634,3649,3667,3677,3643,3684,Lv 6
34,2189,801011018,81018,Lawson,80101,Belconnen,801,Australian Capital Territory,8ACTE,Australian Capital Territory,8,Australian Capital Territory,3.0845,149.0882133,-35.22504104,42519.42737,473.7017028,179.5096761,1749.364618,339.4104556,2474.53257,919.1094097,3816.876412,2918.998106,1493.314667,840.2566249,1422.204438,675.1497416,3942.967415,1163.555291,7358.719243,4126.68414,4898.529152,745.8597885,1417.60792,0,0,0,0,146,709,1752,1897,2012,Lv 7
35,2190,801011019,81019,Macgregor (ACT),80101,Belconnen,801,Australian Capital Territory,8ACTE,Australian Capital Territory,8,Australian Capital Territory,4.2749,149.0110104,-35.20980202,34581.36128,469.6731665,175.3817469,1638.286976,303.2736846,2129.297301,823.4907666,3199.196364,2424.416985,1314.053234,680.1832034,1250.710644,559.6162428,3045.549901,1001.353988,5040.480018,3321.152666,4062.738763,594.9343797,1188.612155,0,0,6530,6701,6875,7043,7166,7245,7343,Lv 6
36,2192,801011021,81021,McKellar,80101,Belconnen,801,Australian Capital Territory,8ACTE,Australian Capital Territory,8,Australian Capital Territory,1.414,149.0770351,-35.21752449,40891.1766,474.0627121,179.343927,1739.707363,333.7079618,2425.001645,902.1500131,3721.480103,2840.230689,1461.501034,804.2400022,1389.300634,653.4067779,3747.40731,1148.754468,6766.036461,3945.671245,4731.780965,711.5597785,1390.69251,0,0,2853,2818,2810,2810,2811,2826,2843,Lv 6
37,2209,801041038,81038,Forde,80104,Gungahlin,801,Australian Capital Territory,8ACTE,Australian Capital Territory,8,Australian Capital Territory,1.9171,149.1460732,-35.16818142,32936.49085,448.313843,172.7594785,1597.27365,293.1384512,2154.495296,799.0150591,3065.487029,2320.780385,1272.455684,656.0969533,1196.48644,541.8231459,2895.799373,946.6158309,4583.539098,3129.927064,3829.457627,563.5139675,1156.434464,0,0,3824,4087,4360,4500,4587,4630,4642,Lv 5
38,2193,801011022,81022,Melba,80101,Belconnen,801,Australian Capital Territory,8ACTE,Australian Capital Territory,8,Australian Capital Territory,2.3073,149.0540504,-35.21015672,36735.30897,466.1878489,177.1905589,1681.250386,317.7566972,2263.286049,852.1354433,3380.938575,2549.339756,1366.604448,717.1455327,1296.558131,590.7260676,3263.648644,1047.247202,5530.792687,3627.814171,4288.547075,631.0796405,1270.61886,0,0,3221,3182,3154,3176,3201,3220,3246,Lv 6
39,2194,801011023,81023,Page,80101,Belconnen,801,Australian Capital Territory,8ACTE,Australian Capital Territory,8,Australian Capital Territory,1.3225,149.0498753,-35.2386365,40330.13835,451.6454226,174.660878,1634.602404,322.6353041,2250.464404,862.9454179,3658.867701,2792.454222,1413.664353,774.2469878,1356.969744,648.1114826,3740.144913,1104.3278,7099.217019,3814.10773,4717.099732,681.8259103,1354.70536,0,0,3010,3040,3084,3129,3149,3148,3120,Lv 6
40,2196,801011025,81025,Spence,80101,Belconnen,801,Australian Capital Territory,8ACTE,Australian Capital Territory,8,Australian Capital Territory,1.5224,149.0643782,-35.1987302,35311.78154,464.8694962,176.8923545,1674.011691,308.5739175,2239.195006,837.6671771,3274.68932,2471.526029,1343.520885,699.3842136,1259.63808,572.1218305,3101.058546,1015.627213,5059.677264,3394.504824,4188.114727,618.4075896,1233.062972,0,0,2605,2590,2601,2599,2608,2626,2635,Lv 6
41,2202,801031113,81113,Canberra East,80103,Canberra East,801,Australian Capital Territory,8ACTE,Australian Capital Territory,8,Australian Capital Territory,31.0618,149.1607375,-35.35989604,41055.74168,444.0389541,173.3951302,1805.649731,392.3502621,2629.117625,900.2291498,3308.495147,2537.080708,1517.459651,902.3909771,1155.165493,598.4977839,3445.981627,1074.548221,9304.333612,3140.721754,4273.158376,610.4843942,1330.795075,0,0,824,813,816,792,793,805,825,Lv 7
42,2206,801041035,81035,Bonner,80104,Gungahlin,801,Australian Capital Territory,8ACTE,Australian Capital Territory,8,Australian Capital Territory,2.7559,149.1429713,-35.15597694,32656.80372,447.692504,172.8324339,1596.569705,293.6709002,2124.89817,796.878467,3057.950462,2291.022959,1275.360185,656.0522555,1186.764932,534.728771,2847.728319,942.0019879,4513.138821,3085.733975,3821.208778,556.454849,1146.555655,0,0,5751,6223,6832,7091,7230,7290,7341,Lv 5
43,2207,801041036,81036,Casey,80104,Gungahlin,801,Australian Capital Territory,8ACTE,Australian Capital Territory,8,Australian Capital Territory,2.6225,149.0947051,-35.16701272,33338.93618,449.9269159,171.1433984,1599.400974,295.8567225,2207.14267,795.3056285,3162.616428,2411.452865,1276.550974,661.9635702,1180.87435,545.6643869,2882.468736,968.0708048,4702.989768,3087.268217,3878.981633,575.1368126,1164.61735,0,0,4353,5405,5967,6361,6515,6646,6819,Lv 5
44,2208,801041037,81037,Crace,80104,Gungahlin,801,Australian Capital Territory,8ACTE,Australian Capital Territory,8,Australian Capital Territory,1.6518,149.1074178,-35.20283431,40155.32177,475.3261259,181.4026117,1779.254839,348.3552564,2555.375231,906.4063258,3613.413314,2795.463738,1470.679108,834.7100134,1364.683842,649.692078,3617.254991,1142.43756,6432.101807,3756.794335,4596.162912,706.1766871,1399.781424,0,0,3083,3962,4561,4916,5139,5241,5320,Lv 6
45,2210,801041039,81039,Franklin,80104,Gungahlin,801,Australian Capital Territory,8ACTE,Australian Capital Territory,8,Australian Capital Territory,2.2966,149.1432932,-35.19946084,37792.81101,463.4676682,179.8090327,1751.353976,345.7525829,2537.88579,889.6770879,3418.542157,2593.655415,1426.212252,790.4916674,1307.599579,620.4756903,3341.585325,1099.295244,5703.208828,3510.133553,4319.86438,668.0850337,1345.841219,0,0,5580,6045,6531,7068,7330,7440,7480,Lv 6
46,2211,801041040,81040,Gungahlin,80104,Gungahlin,801,Australian Capital Territory,8ACTE,Australian Capital Territory,8,Australian Capital Territory,4.5642,149.1361929,-35.18674367,38565.25714,461.7560775,179.2700967,1726.964919,314.497753,2388.837456,886.8710221,3982.103673,2971.509314,1378.052728,745.8075591,1365.131823,671.765229,3255.294343,1061.733375,5516.41847,3606.672894,4501.161455,691.2485836,1386.386216,0,0,6098,6176,6276,6347,6496,6745,6972,Lv 6
47,2212,801041043,81043,Hall,80104,Gungahlin,801,Australian Capital Territory,8ACTE,Australian Capital Territory,8,Australian Capital Territory,2.8593,149.0628131,-35.16918314,36141.1909,476.7283953,178.7550717,1702.136012,317.372593,2305.525674,851.6101253,3296.917779,2536.818841,1367.987032,724.7365696,1292.156906,591.4563266,3207.923869,1039.14958,5387.794926,3380.432734,4187.380778,628.7020893,1264.102161,0,0,304,298,293,281,276,267,291,Lv 6
48,2213,801041044,81044,Harrison,80104,Gungahlin,801,Australian Capital Territory,8ACTE,Australian Capital Territory,8,Australian Capital Territory,2.9168,149.1560948,-35.19909026,35795.00632,462.6153299,180.095486,1700.616345,309.3088116,2277.978385,852.9523483,3263.656509,2522.325051,1365.980336,725.0891926,1301.940821,587.8621722,3130.79542,1028.578892,5193.291978,3471.723783,4148.571569,615.6902895,1241.261147,0,0,6481,7272,7828,8442,8759,8888,8866,Lv 6
49,2214,801041045,81045,Mitchell,80104,Gungahlin,801,Australian Capital Territory,8ACTE,Australian Capital Territory,8,Australian Capital Territory,7.3847,149.1293418,-35.2144703,44250.21285,473.2550006,185.9920571,1991.841828,488.3336199,3544.939662,1040.759,3808.294542,2839.288489,1676.849182,1017.63165,1370.980764,697.731003,3979.314413,1317.933665,6884.733875,3882.114984,4721.021282,839.4744708,1742.406052,0,0,6,5,4,4,4,4,4,Lv 7
50,2215,801041046,81046,Ngunnawal,80104,Gungahlin,801,Australian Capital Territory,8ACTE,Australian Capital Territory,8,Australian Capital Territory,4.1591,149.111466,-35.17280302,35889.40471,458.6590751,178.1674731,1699.192581,313.0547326,2409.481059,851.6350498,3348.009842,2519.623884,1368.509808,721.1252617,1276.673322,589.3070399,3138.420243,1049.485568,5069.540915,3424.005725,4185.95692,617.9985894,1266.065994,0,0,9561,10176,10590,11008,11201,11291,11211,Lv 6
51,2224,801041122,81122,Throsby,80104,Gungahlin,801,Australian Capital Territory,8ACTE,Australian Capital Territory,8,Australian Capital Territory,1.4795,149.1617833,-35.18898404,35713.73718,461.812076,180.176886,1703.95959,310.558037,2257.256713,856.1017339,3296.212465,2535.179278,1363.13088,727.7001129,1302.101179,590.9657558,3120.054746,1024.72138,5205.14226,3367.191941,4142.559207,615.5055973,1241.307254,0,0,0,0,0,0,253,776,1328,Lv 6
52,2225,801051049,81049,Acton,80105,North Canberra,801,Australian Capital Territory,8ACTE,Australian Capital Territory,8,Australian Capital Territory,2.7374,149.1150512,-35.28135202,56065.54531,477.4967604,180.7830069,1775.347799,428.9690216,2530.04128,920.8578035,3888.335651,3657.355269,1619.405163,1137.709428,1589.980432,799.7606868,5664.138794,1479.107169,12357.16447,7912.891705,5161.666277,1032.241139,1608.133558,0,0,2049,2100,2126,2205,2231,2307,2196,Lv 8
53,2216,801041047,81047,Nicholls,80104,Gungahlin,801,Australian Capital Territory,8ACTE,Australian Capital Territory,8,Australian Capital Territory,6.7016,149.0964811,-35.18733328,36170.45645,467.2960166,178.0445695,1683.883826,315.5429069,2291.577824,849.1880919,3314.948559,2733.212508,1350.371395,706.4289566,1276.478573,582.0662548,3148.759505,1045.863791,5177.889478,3516.332035,4191.350434,675.3414247,1261.539553,0,0,6943,6946,6964,6957,6929,6894,6908,Lv 6
54,2217,801041048,81048,Palmerston,80104,Gungahlin,801,Australian Capital Territory,8ACTE,Australian Capital Territory,8,Australian Capital Territory,1.9481,149.1194037,-35.19446906,37434.97314,463.8350374,179.1191564,1732.842204,332.3146235,2458.725995,879.5370455,3449.351677,2617.664285,1406.002617,765.8407521,1304.250408,614.7298601,3302.426613,1078.7521,5545.31216,3551.265329,4307.901193,657.9858503,1337.425844,0,0,5739,5666,5641,5619,5584,5565,5510,Lv 6
55,2226,801051050,81050,Ainslie,80105,North Canberra,801,Australian Capital Territory,8ACTE,Australian Capital Territory,8,Australian Capital Territory,3.5405,149.1478459,-35.26224684,48501.11694,480.5892653,181.3166917,1882.623825,389.1814266,2608.807514,954.9580802,3909.098892,3490.734181,1593.006237,1000.675001,1524.103456,776.184157,4485.213511,1338.351164,10177.56483,4424.453549,5145.020326,830.9521022,1574.230075,0,0,5250,5255,5285,5323,5371,5339,5216,Lv 7
56,2218,801041116,81116,Gungahlin - East,80104,Gungahlin,801,Australian Capital Territory,8ACTE,Australian Capital Territory,8,Australian Capital Territory,17.2008,149.1739486,-35.18198582,34096.65208,456.8051534,178.9698125,1676.028283,301.5535789,2163.480881,838.6508324,3166.317912,2414.597825,1326.734528,694.6803064,1268.784562,567.2202718,2966.534082,985.8454115,4810.239842,3154.884051,3988.127843,584.710463,1188.810822,0,0,0,0,0,0,0,0,0,Lv 6
57,2219,801041117,81117,Gungahlin - West,80104,Gungahlin,801,Australian Capital Territory,8ACTE,Australian Capital Territory,8,Australian Capital Territory,14.7676,149.1067867,-35.14837439,32314.5555,447.2879694,173.1643329,1596.211986,290.751518,2095.184092,795.0763324,3018.217135,2271.587216,1264.188532,648.9733856,1185.782433,532.4452649,2814.055379,935.0845011,4452.75675,3022.084254,3788.719074,552.7145224,1134.148349,0,0,0,0,0,0,0,0,0,Lv 5
58,2220,801041118,81118,Jacka,80104,Gungahlin,801,Australian Capital Territory,8ACTE,Australian Capital Territory,8,Australian Capital Territory,2.917,149.1304295,-35.14952532,31440.07678,445.4184326,171.2406476,1572.662773,284.1328667,2051.712661,778.5084177,2937.746744,2219.635963,1234.051925,629.217105,1157.826248,519.0105063,2719.136543,914.5394691,4283.923203,2914.72819,3699.938337,538.9721025,1102.490885,0,0,184,410,667,769,734,759,760,Lv 5
59,2221,801041119,81119,Kenny,80104,Gungahlin,801,Australian Capital Territory,8ACTE,Australian Capital Territory,8,Australian Capital Territory,6.1708,149.1616399,-35.21692331,35989.55745,460.2067663,180.8276465,1712.259899,315.6569478,2234.652203,860.3997174,3245.495261,2522.856425,1375.867664,748.0967226,1305.276166,590.7656768,3160.929788,1032.565344,5478.08659,3327.457201,4153.345004,619.4200022,1237.322603,0,0,13,11,9,9,9,9,9,Lv 6
60,2227,801051051,81051,Braddon,80105,North Canberra,801,Australian Capital Territory,8ACTE,Australian Capital Territory,8,Australian Capital Territory,1.4078,149.1356771,-35.27081424,57289.95546,480.5262924,179.2954046,1935.650837,457.8460779,2718.815443,985.0360821,4202.640377,4276.96137,1711.586573,1192.325804,1729.971419,891.6227775,5673.263208,1597.974383,14113.42228,5137.501164,5366.615367,957.007617,1760.61412,0,0,5426,5565,5666,5856,6095,6166,6477,Lv 9
61,2222,801041120,81120,Moncrieff,80104,Gungahlin,801,Australian Capital Territory,8ACTE,Australian Capital Territory,8,Australian Capital Territory,1.9172,149.1162835,-35.15883261,33642.45583,449.466324,171.2623294,1602.52458,296.809931,2283.792317,797.6202538,3135.220614,2375.891151,1278.145785,668.790493,1185.813876,549.7135,2918.881302,972.5906448,4794.343432,3167.919051,3913.000837,580.5877986,1178.777298,0,0,29,65,106,991,2783,3844,4388,Lv 5
62,2228,801051053,81053,Civic,80105,North Canberra,801,Australian Capital Territory,8ACTE,Australian Capital Territory,8,Australian Capital Territory,1.4309,149.129164,-35.2812732,79053.34838,529.4969144,179.3448984,1932.677593,748.5521677,2783.51315,1060.658382,5206.390004,5218.556729,2250.64917,1632.955274,2402.002006,1199.073913,8104.439962,2209.716728,26072.3293,5863.025224,6123.086123,1198.389744,1999.204818,0,0,3825,4039,4386,4801,4823,4841,4885,Lv 11
63,2223,801041121,81121,Taylor,80104,Gungahlin,801,Australian Capital Territory,8ACTE,Australian Capital Territory,8,Australian Capital Territory,3.0387,149.1079081,-35.14810759,31933.17995,447.1482951,171.1483263,1579.166564,287.2272159,2091.348381,782.5220821,2984.076378,2259.85684,1243.944054,637.0087956,1163.211263,525.6364619,2764.278788,928.0790595,4405.616906,2970.188561,3748.261258,549.345096,1119.321014,0,0,0,0,0,0,0,417,936,Lv 5
64,2231,801051056,81056,Hackett,80105,North Canberra,801,Australian Capital Territory,8ACTE,Australian Capital Territory,8,Australian Capital Territory,1.9498,149.1635244,-35.24947816,42157.18274,472.4700425,181.7166078,1798.534212,356.8449307,2470.410751,908.5380593,3585.836567,2983.541314,1495.216422,906.1581163,1407.457797,682.4680911,3821.150788,1182.075262,7611.100361,3917.296654,4639.317946,737.1594321,1411.971298,0,0,2991,2981,3012,3035,3117,3164,3206,Lv 7
65,2232,801051057,81057,Lyneham,80105,North Canberra,801,Australian Capital Territory,8ACTE,Australian Capital Territory,8,Australian Capital Territory,5.4776,149.1307427,-35.23979505,46935.05365,480.532323,183.3834034,1862.948014,390.4027692,2687.529704,969.5538721,3848.034409,3271.664761,1600.855291,1025.579591,1464.931689,730.6373626,4341.383356,1314.443373,8890.540535,4514.51212,5141.030465,915.1598771,1584.290859,0,0,5046,5155,5299,5454,5603,5651,5640,Lv 7
66,2233,801051058,81058,O'Connor (ACT),80105,North Canberra,801,Australian Capital Territory,8ACTE,Australian Capital Territory,8,Australian Capital Territory,4.9286,149.1124828,-35.25644521,48131.86214,469.4543261,178.7768612,1772.490156,384.6245361,2568.796969,928.0893884,3885.721035,3356.254667,1557.892209,988.271008,1492.986783,768.7588401,4570.614979,1318.555593,9731.606762,4854.493774,5196.948407,859.595677,1547.819016,0,0,5596,5621,5675,5759,5857,5993,5970,Lv 7
67,2234,801051060,81060,Turner,80105,North Canberra,801,Australian Capital Territory,8ACTE,Australian Capital Territory,8,Australian Capital Territory,1.5377,149.1246622,-35.26882899,48868.15856,487.4611201,180.6404718,1824.714486,399.3321279,2526.373207,934.0578688,3809.468999,3355.55977,1585.876863,1000.945084,1556.756369,864.033228,4739.205138,1349.096461,10233.51878,4812.9153,5077.9793,834.0393297,1562.846113,0,0,3987,4067,4144,4245,4348,4571,4706,Lv 7
68,2235,801051061,81061,Watson,80105,North Canberra,801,Australian Capital Territory,8ACTE,Australian Capital Territory,8,Australian Capital Territory,3.6743,149.159441,-35.23474119,41644.80229,471.7107225,186.3412448,1805.025141,354.8434665,2518.025946,915.4893496,3550.427488,2891.227553,1481.726445,1085.468294,1383.380671,654.8393801,3745.592098,1176.460933,6957.144355,4028.530665,4707.516679,746.8737176,1411.062452,0,0,5855,5888,5955,6028,6103,6172,6260,Lv 7
69,2236,801051123,81123,Black Mountain,80105,North Canberra,801,Australian Capital Territory,8ACTE,Australian Capital Territory,8,Australian Capital Territory,6.7267,149.0961562,-35.27464854,44013.01518,463.8292267,176.6057853,1693.450019,356.769356,2327.254147,874.0038861,3642.238207,2981.155355,1458.466561,872.3700355,1405.126772,681.893706,4060.820462,1194.679908,8785.439766,4353.660276,4909.528249,792.6042864,1415.400052,0,0,0,0,0,0,0,0,0,Lv 7
70,2237,801051124,81124,Campbell,80105,North Canberra,801,Australian Capital Territory,8ACTE,Australian Capital Territory,8,Australian Capital Territory,3.1593,149.1528135,-35.28617755,52998.32255,476.6815389,179.0022678,1873.895561,414.597164,2703.982043,972.8824812,3918.042136,3522.764412,1655.331734,1036.861334,1543.752082,794.1472649,4880.592966,1443.59375,13196.76457,4799.827934,5055.357605,1071.061558,1645.274754,0,0,3302,3299,3312,3455,3605,3818,4056,Lv 8
71,2238,801051125,81125,Duntroon,80105,North Canberra,801,Australian Capital Territory,8ACTE,Australian Capital Territory,8,Australian Capital Territory,2.4118,149.1652069,-35.29808647,46081.6902,455.9688746,177.0686676,1827.511181,370.5954877,2547.8978,943.6222478,3632.179878,2970.417207,1557.277651,868.5384198,1376.321781,683.5785748,3966.291187,1330.198991,10961.24893,4058.305194,4543.406399,743.9421056,1432.158946,0,0,1775,1795,1809,1897,1973,1996,1960,Lv 7
72,2239,801051126,81126,Parkes (ACT) - North,80105,North Canberra,801,Australian Capital Territory,8ACTE,Australian Capital Territory,8,Australian Capital Territory,1.0976,149.1398186,-35.29329204,59388.97876,479.7240599,179.6095231,1888.255731,429.2771423,2688.256456,996.0633293,3952.561602,3611.325612,1721.950764,1131.468098,1590.621512,830.9780631,5376.303452,1487.929858,18541.85574,4600.087067,5341.511958,948.8036191,1687.970278,0,0,4,4,4,4,4,4,4,Lv 9
73,2240,801051127,81127,Reid,80105,North Canberra,801,Australian Capital Territory,8ACTE,Australian Capital Territory,8,Australian Capital Territory,0.9367,149.141074,-35.28245248,58569.51018,483.8810059,178.8534789,1864.523663,477.5871214,2666.440989,976.0533131,4144.79377,3909.232927,1763.796161,1158.929755,1719.774166,878.8671913,5606.446072,1589.205035,15952.85953,5211.51329,5347.321363,1016.110622,1706.23525,0,0,1696,1710,1704,1698,1703,1686,1721,Lv 9
74,2241,801051128,81128,Russell,80105,North Canberra,801,Australian Capital Territory,8ACTE,Australian Capital Territory,8,Australian Capital Territory,0.4939,149.1502167,-35.29798264,60900.35043,481.4579971,179.920168,1911.552725,432.2127488,2731.216599,1016.753143,3995.751289,3626.463659,1740.955202,1163.67107,1600.202158,844.952685,5473.998191,1501.86148,19744.08742,4470.704874,5384.186261,945.5376758,1721.96981,0,0,0,0,3,3,3,3,3,Lv 9
75,2250,801061129,81129,Barton,80106,South Canberra,801,Australian Capital Territory,8ACTE,Australian Capital Territory,8,Australian Capital Territory,1.1901,149.1358472,-35.30926712,64884.08049,503.9941278,184.3919491,1998.889746,420.0171572,3005.05811,1115.864043,4106.822697,3994.210663,1772.704194,1322.702532,1678.650579,1003.373103,6159.328926,1557.229412,20413.56296,4653.736643,5804.72496,1030.795679,2094.594895,0,0,1419,1456,1491,1533,1584,1670,1691,Lv 9
76,2242,801061062,81062,Deakin,80106,South Canberra,801,Australian Capital Territory,8ACTE,Australian Capital Territory,8,Australian Capital Territory,3.5714,149.1030849,-35.31926639,50225.63411,471.3994575,175.1847385,2014.369478,348.4861669,2462.846502,885.7890639,3635.73416,3108.646001,1442.840689,911.2509714,1577.069191,733.5883893,4793.494079,1270.184702,10527.62856,4351.020073,7230.27051,886.8962637,1676.505329,0,0,2882,2903,2941,2967,2983,2997,2987,Lv 8
77,2243,801061063,81063,Forrest,80106,South Canberra,801,Australian Capital Territory,8ACTE,Australian Capital Territory,8,Australian Capital Territory,1.5901,149.1247583,-35.31719608,51299.92957,472.0368903,182.4184193,1859.592467,377.6254478,2612.195347,950.4644203,3720.195523,3256.210558,1572.683514,964.5494943,1484.550488,765.8540386,4866.996633,1289.486287,13336.44251,4047.965286,5366.952341,802.8483519,1613.116883,0,0,1652,1676,1713,1712,1776,1776,1766,Lv 8
78,2244,801061064,81064,Griffith (ACT),80106,South Canberra,801,Australian Capital Territory,8ACTE,Australian Capital Territory,8,Australian Capital Territory,2.7559,149.1371367,-35.32533419,48163.73811,481.3432914,177.5289904,1909.074898,374.4993409,2674.840645,967.6952153,3896.532854,3489.34448,1567.338876,911.375727,1471.080294,833.174781,4456.31396,1265.231097,10174.09585,4079.741999,5316.22059,790.6493837,1608.410463,0,0,4292,4467,4661,4851,5055,5235,5372,Lv 7
79,2245,801061066,81066,Lake Burley Griffin,80106,South Canberra,801,Australian Capital Territory,8ACTE,Australian Capital Territory,8,Australian Capital Territory,6.1594,149.1141678,-35.2948154,49426.02388,478.2129046,177.1092553,1815.763879,382.1255749,2482.232886,920.1303884,3692.421914,3301.286963,1536.338936,1021.292443,1477.281318,747.3140532,4523.579632,1301.097528,12007.18618,4107.092097,5337.455651,861.4502072,1556.428028,0,0,0,0,0,0,0,0,0,Lv 8
80,2255,801071073,81073,Calwell,80107,Tuggeranong,801,Australian Capital Territory,8ACTE,Australian Capital Territory,8,Australian Capital Territory,3.8922,149.1070725,-35.44041867,32468.12718,413.3445738,159.2027191,1494.849566,320.7643226,2058.656128,731.0631459,2991.444608,2190.873042,1245.824951,597.253337,1045.358387,506.8151961,2665.444904,904.3833986,5550.714254,2878.151112,3845.901255,517.5362504,1106.306308,0,0,5890,5858,5826,5779,5740,5643,5555,Lv 5
81,2246,801061067,81067,Narrabundah,80106,South Canberra,801,Australian Capital Territory,8ACTE,Australian Capital Territory,8,Australian Capital Territory,4.0907,149.1492384,-35.33569792,49501.82649,473.5262361,178.6150192,1980.583086,392.3555316,2877.160803,1023.679405,4008.24299,3338.522913,1666.662826,941.0117637,1436.263449,784.1714759,4446.063826,1295.169857,10876.6884,3980.634373,5575.451259,773.0192316,1665.001529,0,0,5854,5918,6038,6116,6192,6191,6293,Lv 8
82,2247,801061068,81068,Parkes (ACT) - South,80106,South Canberra,801,Australian Capital Territory,8ACTE,Australian Capital Territory,8,Australian Capital Territory,1.8118,149.1286512,-35.30335957,61099.51358,490.39902,181.0610987,1905.103339,419.1570638,2736.99168,1018.210176,3947.30303,3732.715804,1675.467466,1593.6557,1601.088096,878.4714394,5421.710626,1501.812983,18877.97144,4499.815809,5608.232882,1229.229303,1835.711122,0,0,3,4,5,5,5,5,5,Lv 9
83,2248,801061069,81069,Red Hill (ACT),80106,South Canberra,801,Australian Capital Territory,8ACTE,Australian Capital Territory,8,Australian Capital Territory,4.8606,149.1206036,-35.33346046,46809.27535,461.0551679,176.6794121,1831.653641,362.1908596,2540.384883,921.2550097,3735.208034,3084.13142,1541.005078,871.7720986,1410.111265,718.3441973,4142.90186,1217.966377,10236.26374,4153.879769,5455.685016,753.9366584,1531.783017,0,0,3287,3258,3250,3216,3155,3152,3109,Lv 7
84,2249,801061070,81070,Yarralumla,80106,South Canberra,801,Australian Capital Territory,8ACTE,Australian Capital Territory,8,Australian Capital Territory,7.2105,149.0986395,-35.30403637,48814.22625,489.3444007,176.2257349,1830.68946,365.4555701,2451.793963,899.8037044,3666.184012,3377.377521,1491.760224,946.0642891,1464.654607,731.5578831,4502.982218,1279.473829,11270.16836,4084.779139,5684.119183,848.0892568,1560.098105,0,0,2991,2999,3026,3054,3080,3097,3099,Lv 7
85,2261,801071079,81079,Gowrie (ACT),80107,Tuggeranong,801,Australian Capital Territory,8ACTE,Australian Capital Territory,8,Australian Capital Territory,1.9317,149.109035,-35.41186911,33443.56073,414.9333654,159.951734,1517.369046,317.7749401,2100.716624,746.5107874,3047.978448,2260.767249,1255.482366,614.9398541,1066.744003,521.0004383,2735.560865,915.0482357,5751.914798,2980.962314,4078.391328,537.9392149,1159.660109,0,0,3086,3084,3091,3095,3095,3097,3115,Lv 5
86,2251,801061130,81130,Fyshwick,80106,South Canberra,801,Australian Capital Territory,8ACTE,Australian Capital Territory,8,Australian Capital Territory,9.7669,149.1708507,-35.32168263,55661.11799,491.9227542,185.6887695,2803.384399,505.5672486,4207.766163,1573.456867,5560.924229,3280.150682,2326.050723,1143.362785,1478.002908,837.2953595,4882.334945,1594.307929,10942.52799,3789.180176,5040.05721,760.4769907,2086.66162,0,0,50,54,59,59,59,59,59,Lv 8
87,2252,801061131,81131,Kingston (ACT),80106,South Canberra,801,Australian Capital Territory,8ACTE,Australian Capital Territory,8,Australian Capital Territory,1.4038,149.1465916,-35.31523336,60406.46369,495.1519159,183.3212622,2056.73738,419.0685443,3139.555786,1127.063611,4179.940245,3868.216107,1820.605526,1145.182957,1636.98163,960.632328,5842.306042,1508.725935,17113.28899,4371.786541,5619.278218,892.2371487,2017.066397,0,0,4034,4271,4569,5303,5684,5959,6031,Lv 9
88,2253,801071071,81071,Banks,80107,Tuggeranong,801,Australian Capital Territory,8ACTE,Australian Capital Territory,8,Australian Capital Territory,2.2533,149.0996522,-35.47193546,28751.87911,402.7287773,157.4341375,1413.85618,277.96237,1835.571278,689.5320368,2686.381761,1977.135072,1128.015163,536.2647552,990.5872119,461.5883789,2377.750847,818.8343377,4424.967591,2527.987013,3454.950409,463.4305411,999.6730473,0,0,5066,5024,4994,4960,4922,4924,4846,Lv 5
89,2254,801071072,81072,Bonython,80107,Tuggeranong,801,Australian Capital Territory,8ACTE,Australian Capital Territory,8,Australian Capital Territory,2.9045,149.0782249,-35.4332553,32220.2529,410.804297,158.8105475,1454.388916,336.953057,1947.328698,710.1978799,2994.682261,2171.849868,1237.142381,579.767454,1032.191113,512.0131335,2612.420564,876.6823413,5753.821873,2771.816751,3846.536571,515.5523498,1086.798877,0,0,3915,3891,3850,3816,3781,3736,3726,Lv 5
90,2256,801071074,81074,Chisholm,80107,Tuggeranong,801,Australian Capital Territory,8ACTE,Australian Capital Territory,8,Australian Capital Territory,3.1046,149.1247572,-35.42203132,33360.02517,414.0285057,160.4385789,1536.808656,323.0897618,2135.820752,755.1451779,3065.691996,2271.737834,1279.260258,624.3213082,1061.676205,516.6899302,2751.056999,930.1436272,5839.77264,2895.571599,3848.442955,530.6804913,1145.086413,0,0,5236,5207,5199,5181,5160,5154,5122,Lv 5
91,2257,801071075,81075,Conder,80107,Tuggeranong,801,Australian Capital Territory,8ACTE,Australian Capital Territory,8,Australian Capital Territory,4.5237,149.1042157,-35.45925562,29650.84962,403.9694492,157.7069532,1435.525633,282.3432111,1862.529059,693.4109146,2831.113725,2139.901174,1151.204513,537.988799,995.8713256,478.1966833,2408.341374,831.854966,4545.862758,2689.388203,3545.489123,468.69359,1045.667231,0,0,5220,5141,5081,5024,4974,4902,4929,Lv 5
92,2258,801071076,81076,Fadden,80107,Tuggeranong,801,Australian Capital Territory,8ACTE,Australian Capital Territory,8,Australian Capital Territory,3.1064,149.117649,-35.40194451,32393.92967,411.8780454,159.8961727,1516.203965,307.801219,2076.655115,744.7237168,2910.457532,2165.610916,1240.789508,607.4312368,1047.509845,505.7742384,2695.970477,894.9661253,5522.621408,2803.80931,3882.940694,517.8068458,1131.655157,0,0,3037,2993,2967,2947,2928,2931,2946,Lv 5
93,2259,801071077,81077,Gilmore,80107,Tuggeranong,801,Australian Capital Territory,8ACTE,Australian Capital Territory,8,Australian Capital Territory,2.0454,149.138185,-35.41522342,33243.14917,414.4501373,160.8383507,1548.998419,326.1800732,2148.544809,766.0715324,2970.5454,2226.295984,1295.810305,631.9362512,1062.194026,518.5937866,2761.13938,924.468583,5884.688688,2836.21426,3815.573057,527.6064724,1145.414577,0,0,2829,2798,2780,2766,2755,2730,2719,Lv 5
94,2260,801071078,81078,Gordon (ACT),80107,Tuggeranong,801,Australian Capital Territory,8ACTE,Australian Capital Territory,8,Australian Capital Territory,4.4416,149.0849802,-35.45675907,29670.75187,405.1206757,158.0632034,1431.747178,285.4580804,1904.718658,699.775203,2743.227857,2019.857756,1153.903876,542.4566649,1004.484854,477.6312977,2444.73551,846.1928043,4618.760252,2678.618387,3588.624878,476.5426879,1035.596912,0,0,7776,7690,7635,7605,7575,7519,7562,Lv 5
95,2262,801071080,81080,Greenway,80107,Tuggeranong,801,Australian Capital Territory,8ACTE,Australian Capital Territory,8,Australian Capital Territory,5.307,149.0649333,-35.4158467,42858.64759,425.2517983,168.020852,1600.812332,590.0156464,2141.70123,801.3775938,4135.703411,2795.194644,1660.951926,716.7382518,1212.529191,661.1587731,3220.08147,1049.986392,10501.24452,3134.470471,4617.758445,664.6278474,1321.600313,0,0,1816,1865,1937,2052,2435,2673,2892,Lv 7
96,2277,801081094,81094,Holder,80108,Weston Creek,801,Australian Capital Territory,8ACTE,Australian Capital Territory,8,Australian Capital Territory,1.8719,149.0461115,-35.33447764,39198.94565,446.1652319,171.5529784,1635.776964,315.4008061,2193.781673,810.8176961,3410.807215,2662.351176,1323.047087,716.4639847,1272.303444,606.1648985,3342.430646,1078.122248,7221.272107,3572.976768,4973.012122,667.5871064,1337.663664,0,0,2737,2679,2643,2633,2623,2648,2647,Lv 6
97,2263,801071081,81081,Isabella Plains,80107,Tuggeranong,801,Australian Capital Territory,8ACTE,Australian Capital Territory,8,Australian Capital Territory,2.495,149.093955,-35.4280152,31476.37215,408.6428444,158.4666965,1467.387815,305.1599657,1965.997793,718.1192659,2888.178298,2122.948217,1198.996689,574.4356212,1030.34054,493.6215461,2563.374583,876.7650822,5256.823923,2800.295161,3844.966658,504.1812294,1086.067259,0,0,4410,4411,4412,4400,4397,4408,4380,Lv 5
98,2264,801071082,81082,Kambah,80107,Tuggeranong,801,Australian Capital Territory,8ACTE,Australian Capital Territory,8,Australian Capital Territory,11.3361,149.0580449,-35.38623897,38572.55651,439.7956679,169.6308409,1620.014398,348.9418929,2259.36228,804.3379522,3517.304739,2625.525313,1358.706711,691.1930464,1225.578235,594.9875547,3197.935925,1071.708812,7023.236557,3463.914604,4787.68789,634.6115507,1317.196643,0,0,15324,15133,15038,14959,14852,14886,14842,Lv 6
99,2265,801071083,81083,Macarthur,80107,Tuggeranong,801,Australian Capital Territory,8ACTE,Australian Capital Territory,8,Australian Capital Territory,1.3014,149.1317343,-35.40523765,33123.70229,414.1049077,160.7059898,1541.588683,323.331039,2127.2758,761.2901555,2957.0049,2211.961109,1284.28468,627.1163326,1063.871317,517.930273,2757.865301,919.4025878,5852.850236,2821.873868,3841.301385,527.3569166,1138.601661,0,0,1475,1462,1453,1440,1424,1403,1385,Lv 5
100,2278,801081095,81095,Rivett,80108,Weston Creek,801,Australian Capital Territory,8ACTE,Australian Capital Territory,8,Australian Capital Territory,1.6106,149.0379043,-35.34709248,38336.49745,439.5811236,171.0513457,1632.943157,318.0628813,2191.103338,808.1757191,3394.857468,2592.808888,1328.994947,701.0435176,1248.788728,599.0236928,3249.510923,1052.660519,6940.153018,3466.23783,4842.882399,632.3066448,1309.676013,0,0,3215,3179,3212,3214,3227,3273,3290,Lv 6
101,2266,801071084,81084,Monash,80107,Tuggeranong,801,Australian Capital Territory,8ACTE,Australian Capital Territory,8,Australian Capital Territory,3.4119,149.0906272,-35.41576692,33414.09888,415.7260203,158.7157527,1482.580393,332.2166552,2026.596384,727.7771156,3066.870251,2259.555284,1256.470773,599.5485322,1053.099817,517.7884737,2708.978449,912.8746054,5919.243834,2917.234966,4152.675274,539.5591902,1138.967646,0,0,5507,5471,5462,5417,5368,5300,5242,Lv 5
102,2267,801071085,81085,Mount Taylor,80107,Tuggeranong,801,Australian Capital Territory,8ACTE,Australian Capital Territory,8,Australian Capital Territory,10.9052,149.0925858,-35.38123848,40259.96956,436.0204291,169.996292,1661.680238,349.0388609,2268.78572,824.6713645,3691.12115,2776.838611,1378.773221,713.5106916,1268.056005,624.6786871,3267.60879,1075.323048,7684.182994,3507.4402,5074.087383,660.3066471,1370.352534,0,0,3,3,3,3,3,3,3,Lv 6
103,2268,801071086,81086,Oxley (ACT),80107,Tuggeranong,801,Australian Capital Territory,8ACTE,Australian Capital Territory,8,Australian Capital Territory,1.0865,149.0786045,-35.40951749,33863.71268,416.4873121,159.1621786,1466.836225,335.6619004,1989.134229,720.8012369,3120.102195,2305.658009,1244.98665,602.9012639,1059.642104,525.4028186,2745.50557,914.1223991,6213.63371,2964.217344,4138.378913,553.6080595,1148.07473,0,0,1756,1734,1722,1699,1668,1668,1636,Lv 5
104,2269,801071087,81087,Richardson,80107,Tuggeranong,801,Australian Capital Territory,8ACTE,Australian Capital Territory,8,Australian Capital Territory,2.2371,149.113772,-35.42787471,33146.81667,413.3484869,159.5293584,1504.641887,323.9597579,2060.670028,738.1398982,3038.892606,2232.936186,1257.759313,599.8791368,1055.130129,516.4067081,2701.40895,910.1284551,5817.580624,2878.050004,4010.251608,529.3329735,1144.479239,0,0,3120,3078,3057,3036,3012,3007,3006,Lv 5
105,2270,801071088,81088,Theodore,80107,Tuggeranong,801,Australian Capital Territory,8ACTE,Australian Capital Territory,8,Australian Capital Territory,3.1353,149.119708,-35.44962452,31630.79837,410.8695608,159.3909392,1489.970003,312.6102956,2020.216074,729.5664738,2868.04627,2130.138557,1224.446077,595.0601821,1036.142885,498.4633825,2616.96387,887.3565677,5359.924159,2772.436296,3707.664864,506.2935091,1082.1604,0,0,3937,3870,3823,3804,3786,3775,3733,Lv 5
106,2271,801071089,81089,Tuggeranong,80107,Tuggeranong,801,Australian Capital Territory,8ACTE,Australian Capital Territory,8,Australian Capital Territory,75.6837,149.112476,-35.50628916,26849.80097,395.4130223,155.9595945,1361.55358,259.0103988,1703.953112,662.3183691,2502.510831,1850.365488,1071.186845,506.4132567,958.243395,436.7250456,2225.821057,766.8637954,3941.796707,2352.194878,3243.805077,445.2781872,932.8907783,0,0,26,24,22,22,22,22,22,Lv 4
107,2279,801081096,81096,Stirling,80108,Weston Creek,801,Australian Capital Territory,8ACTE,Australian Capital Territory,8,Australian Capital Territory,1.3226,149.0492966,-35.3496909,40060.54663,442.3569642,171.5293375,1659.710477,324.6445718,2246.396271,821.7753399,3527.773598,2698.129148,1348.859138,720.8413058,1273.504986,618.9461893,3359.017519,1085.545192,7498.004195,3650.951316,5136.981579,653.461205,1357.954253,0,0,2183,2157,2158,2159,2158,2141,2147,Lv 6
108,2272,801071090,81090,Wanniassa,80107,Tuggeranong,801,Australian Capital Territory,8ACTE,Australian Capital Territory,8,Australian Capital Territory,5.3975,149.0908594,-35.39782572,37643.80827,427.1716612,168.3154959,1615.742601,330.2558364,2172.665402,793.2406615,3531.903545,2792.273679,1319.754354,672.3643906,1199.889952,590.3915128,3025.999757,1012.635288,6394.635431,3595.295303,4622.738864,689.9765396,1303.460993,0,0,7763,7630,7563,7518,7474,7382,7358,Lv 6
109,2280,801081097,81097,Waramanga,80108,Weston Creek,801,Australian Capital Territory,8ACTE,Australian Capital Territory,8,Australian Capital Territory,1.7098,149.0621441,-35.35297165,39376.96746,440.1603629,171.3797167,1651.889624,321.6379637,2223.456428,820.3678089,3497.165171,2646.370908,1337.771876,715.0395862,1263.579018,608.9563016,3304.899813,1072.477895,7289.757253,3581.793546,4997.019808,642.3652547,1345.084403,0,0,2717,2682,2682,2676,2644,2665,2711,Lv 6
110,2273,801071132,81132,Tuggeranong - West,80107,Tuggeranong,801,Australian Capital Territory,8ACTE,Australian Capital Territory,8,Australian Capital Territory,9.2083,149.0346169,-35.39671957,31184.54889,418.221099,166.8409465,1503.442719,285.9520349,1892.655981,741.8730665,2858.965815,2142.848444,1194.28544,595.2817675,1116.465071,505.2650957,2624.134629,883.5696757,4855.416243,2760.570406,3832.849924,515.6925024,1072.42066,0,0,12,15,15,15,15,15,15,Lv 5
111,2281,801081098,81098,Weston,80108,Weston Creek,801,Australian Capital Territory,8ACTE,Australian Capital Territory,8,Australian Capital Territory,3.8462,149.0588121,-35.33256214,42374.82524,449.228541,172.5922924,1691.491847,326.6155362,2299.141354,833.5950743,3693.028228,2990.391214,1365.058671,760.7081641,1328.105195,653.8425254,3598.676111,1147.917884,8066.4256,3845.221641,5469.976183,709.3861776,1460.504502,0,0,3560,3604,3628,3648,3661,3693,3693,Lv 7
112,2274,801081091,81091,Chapman,80108,Weston Creek,801,Australian Capital Territory,8ACTE,Australian Capital Territory,8,Australian Capital Territory,1.8558,149.0374234,-35.35620789,38169.66905,439.5821748,170.9605301,1627.210197,318.16751,2188.583397,805.1560506,3399.067572,2588.252706,1318.313236,696.9591754,1249.459044,601.1245407,3243.56539,1049.019872,6858.233569,3486.995583,4789.755921,629.9423846,1302.273871,0,0,2781,2753,2727,2717,2710,2742,2775,Lv 6
113,2275,801081092,81092,Duffy,80108,Weston Creek,801,Australian Capital Territory,8ACTE,Australian Capital Territory,8,Australian Capital Territory,2.7964,149.0318954,-35.33457503,36882.59154,438.6499356,170.8866229,1607.042719,306.8243925,2134.393269,796.1312753,3234.901748,2510.351643,1289.904509,692.0084417,1230.97601,579.2395412,3182.073854,1026.18332,6521.869015,3351.947089,4550.426026,616.618653,1254.413432,0,0,3316,3225,3208,3200,3171,3159,3162,Lv 6
114,2276,801081093,81093,Fisher,80108,Weston Creek,801,Australian Capital Territory,8ACTE,Australian Capital Territory,8,Australian Capital Territory,1.5822,149.0570415,-35.3612629,37533.18027,436.208588,170.6810674,1627.511454,315.1914833,2159.416868,803.4401898,3344.725935,2533.78154,1308.570481,688.9014323,1233.493927,586.9028886,3168.609826,1031.815763,6745.634766,3329.507563,4746.217294,614.1245147,1288.061044,0,0,3110,3059,3018,2999,2985,2969,2925,Lv 6
115,2284,801091100,81100,Curtin,80109,Woden Valley,801,Australian Capital Territory,8ACTE,Australian Capital Territory,8,Australian Capital Territory,4.8079,149.0776334,-35.32463675,43132.77319,447.0119224,172.5349024,1716.866023,334.0557974,2313.722169,848.3774991,3618.300825,2864.813983,1384.059118,798.1578719,1354.229967,679.9067164,3715.424191,1175.685284,8632.096183,3706.000334,5713.533959,711.1505227,1428.25425,0,0,5352,5330,5325,5327,5335,5320,5331,Lv 7
116,2285,801091101,81101,Farrer,80109,Woden Valley,801,Australian Capital Territory,8ACTE,Australian Capital Territory,8,Australian Capital Territory,2.0687,149.1049959,-35.37672776,37760.13586,434.9519678,169.5817168,1627.813235,321.6923869,2191.967169,808.2917417,3411.839992,2563.508382,1326.084637,683.1363571,1238.342469,591.708001,3126.89526,1025.806574,6824.77615,3262.939587,4849.183979,610.5739492,1293.347616,0,0,3386,3333,3279,3314,3340,3349,3360,Lv 6
117,2286,801091102,81102,Garran,80109,Woden Valley,801,Australian Capital Territory,8ACTE,Australian Capital Territory,8,Australian Capital Territory,2.6965,149.1084592,-35.34138957,47897.8333,444.2195933,172.4151118,1738.18143,334.1214109,2353.368447,859.9492623,3705.453815,2872.10583,1393.249312,779.7350357,1350.823709,672.0064396,3645.690861,1225.210298,9034.878493,3715.043914,9816.729599,687.903254,1475.484721,0,0,3454,3500,3546,3594,3641,3613,3663,Lv 7
118,2288,801091104,81104,Isaacs,80109,Woden Valley,801,Australian Capital Territory,8ACTE,Australian Capital Territory,8,Australian Capital Territory,3.0881,149.1155543,-35.36862427,39201.09041,434.9334556,170.5820037,1660.974486,323.0582132,2221.122776,824.0279015,3490.701851,2633.311542,1346.236138,712.5599664,1272.788275,612.239088,3278.567912,1060.727954,7322.486344,3333.487581,5094.116651,630.4192182,1330.580098,0,0,2414,2398,2393,2396,2403,2380,2341,Lv 6
119,2289,801091105,81105,Lyons (ACT),80109,Woden Valley,801,Australian Capital Territory,8ACTE,Australian Capital Territory,8,Australian Capital Territory,2.2619,149.0739624,-35.34060487,43779.74138,447.2467989,172.423938,1721.521199,337.5439586,2343.10084,854.7792888,3760.564335,2942.565804,1393.820404,789.1926253,1358.106408,680.9519956,3682.966634,1173.853779,8926.22634,3724.741977,5763.253371,710.6027578,1465.861384,0,0,3033,3071,3125,3156,3189,3187,3141,Lv 7
120,2290,801091106,81106,Mawson,80109,Woden Valley,801,Australian Capital Territory,8ACTE,Australian Capital Territory,8,Australian Capital Territory,2.1128,149.0986258,-35.36340099,42022.50931,438.382524,171.118823,1703.709264,341.2922179,2328.882122,844.6834707,3854.216776,2875.734593,1389.144317,739.5262683,1328.667011,654.7494314,3433.788202,1122.056943,8186.052639,3578.649884,5403.069738,666.3929737,1437.974495,0,0,3230,3263,3309,3322,3340,3332,3384,Lv 7
121,2291,801091107,81107,O'Malley,80109,Woden Valley,801,Australian Capital Territory,8ACTE,Australian Capital Territory,8,Australian Capital Territory,2.6068,149.1128012,-35.35253402,41720.5181,439.529833,171.7514486,1720.44039,331.7064598,2330.59132,855.5035244,3666.607035,2753.287044,1393.913528,743.4201519,1309.654185,646.4265404,3454.805909,1106.233508,8328.014178,3447.69223,5470.018224,647.8293158,1394.09468,0,0,987,1009,1040,1052,1058,1060,1074,Lv 7
122,2292,801091108,81108,Pearce,80109,Woden Valley,801,Australian Capital Territory,8ACTE,Australian Capital Territory,8,Australian Capital Territory,1.7032,149.0833796,-35.36222166,41782.44861,440.886728,171.1620025,1681.29629,330.1790299,2275.185743,836.6891056,3729.542173,2812.804463,1361.265205,740.4047026,1308.6437,644.3741032,3403.50042,1106.512867,8272.931951,3715.5587,5391.371328,661.1722827,1399.310144,0,0,2620,2614,2610,2624,2629,2619,2702,Lv 7
123,2293,801091109,81109,Phillip,80109,Woden Valley,801,Australian Capital Territory,8ACTE,Australian Capital Territory,8,Australian Capital Territory,2.5749,149.0908992,-35.34703406,52804.99161,446.2948437,172.367443,1799.399554,347.7629496,2513.731551,912.3925472,5056.704698,3518.302618,1463.455099,848.2742399,1510.320855,777.9574677,3976.526466,1276.997148,13171.11263,3865.010318,6900.180497,758.5011678,1741.611896,0,0,2546,2766,3059,3382,3693,3944,4274,Lv 8
124,2295,801101134,81134,Arboretum,80110,Molonglo,801,Australian Capital Territory,8ACTE,Australian Capital Territory,8,Australian Capital Territory,6.0368,149.0675587,-35.29586728,42885.85958,467.6964521,175.3616058,1682.315878,347.6460849,2283.585682,852.0313067,3581.020402,2939.731111,1417.424378,815.9962648,1377.940023,665.3065088,3875.581483,1163.729317,8489.874156,4094.025202,4981.578602,755.1003547,1391.085924,0,0,5,7,8,8,8,8,8,Lv 7
125,2296,801101135,81135,Coombs,80110,Molonglo,801,Australian Capital Territory,8ACTE,Australian Capital Territory,8,Australian Capital Territory,2.3179,149.0424374,-35.31676125,35534.30746,438.3325687,171.1521055,1590.615388,301.0008269,2145.06452,792.7415304,3144.697519,2428.025326,1279.413573,676.0270435,1217.025878,567.658903,3091.477894,989.8816355,5999.737896,3223.562565,4327.238083,595.9236842,1204.529613,0,0,40,1052,1811,2479,2935,3413,3806,Lv 6
126,2297,801101136,81136,Denman Prospect,80110,Molonglo,801,Australian Capital Territory,8ACTE,Australian Capital Territory,8,Australian Capital Territory,4.7437,149.0248151,-35.29642108,35385.87129,438.9430176,171.6815554,1583.597435,303.8192137,2072.712862,795.0380227,3149.91048,2436.859404,1283.601041,682.1544807,1230.67157,568.5315854,3119.03333,990.0907432,5913.186898,3264.531278,4237.978189,598.5358692,1196.511232,0,0,0,0,0,0,247,473,963,Lv 6
127,2298,801101137,81137,Molonglo,80110,Molonglo,801,Australian Capital Territory,8ACTE,Australian Capital Territory,8,Australian Capital Territory,2.1894,149.0401994,-35.29982851,35620.36647,439.6828913,171.8550129,1586.118738,305.5555957,2077.755612,797.6209864,3169.445419,2453.804173,1289.523047,684.8212141,1237.198285,572.0737752,3149.80829,996.1692978,5977.714166,3299.662529,4254.364422,601.8497379,1202.532972,0,0,0,0,0,0,0,0,0,Lv 6
128,2299,801101138,81138,Molonglo - North,80110,Molonglo,801,Australian Capital Territory,8ACTE,Australian Capital Territory,8,Australian Capital Territory,10.5912,149.04812,-35.28540215,35822.06952,440.2143346,172.0705348,1586.158847,307.6329096,2078.749618,800.5838192,3182.808353,2466.647357,1296.761914,694.2779,1244.147662,574.6547606,3182.674013,1001.747239,6053.777761,3337.266248,4230.679811,608.4051461,1204.201993,0,0,4,5,5,5,5,5,5,Lv 6
129,2300,801101139,81139,Wright,80110,Molonglo,801,Australian Capital Territory,8ACTE,Australian Capital Territory,8,Australian Capital Territory,1.2716,149.0335958,-35.31928007,37215.64983,443.2468818,171.9676614,1619.043287,310.0506883,2196.693852,808.0600023,3268.330492,2541.289221,1308.420838,702.3530557,1248.246443,592.0386352,3251.852081,1026.082009,6517.494336,3376.549506,4548.381875,625.5574384,1258.726768,0,0,1025,2046,2768,3224,3499,3582,3786,Lv 6
130,2301,801111140,81140,ACT - South West,80111,Urriarra - Namadgi,801,Australian Capital Territory,8ACTE,Australian Capital Territory,8,Australian Capital Territory,416.6124,148.9606878,-35.39101133,26279.00984,431.6183296,165.219441,1401.316168,300.7203655,1654.796174,681.3804276,2423.691008,1829.17905,1065.372559,523.0040681,1017.551593,437.8577679,2273.187593,771.8722056,3289.168351,2350.483403,3163.060098,509.3842628,908.8896211,0,0,540,556,560,567,585,583,590,Lv 4
131,2302,801111141,81141,Namadgi,80111,Urriarra - Namadgi,801,Australian Capital Territory,8ACTE,Australian Capital Territory,8,Australian Capital Territory,1202.893,148.9359458,-35.63127644,19597.45136,353.0365444,143.75336,1146.733018,193.7439908,1300.048754,549.4550933,1897.134846,1381.420747,847.0613648,383.8936174,794.6473952,334.8224449,1612.862956,588.964563,2054.143995,1720.963094,2429.100772,325.8326089,699.8294022,0,0,38,39,39,39,39,39,39,Lv 3
