fid,ogc_fid,sa2_main16,sa2_5dig16,sa2_name16,sa3_code16,sa3_name16,sa4_code16,sa4_name16,gcc_code16,gcc_name16,ste_code16,ste_name16,areasqkm16,Long,Lat,EJD_Total,EJD_AgriFor,EJD_Mining,EJD_Manufacturing,EJD_Util,EJD_Constr,EJD_Wholesale,EJD_Retail,EJD_AccoFood,EJD_Logistic,EJD_IT,EJD_Fin,EJD_RealEst,EJD_ProfServ,EJD_Admin,EJD_GovDef,EJD_Edu,EJD_Health,EJD_Arts,EJD_Other,EMP_Total_2016,EMP_Total_2021,ERP_2014,ERP_2015,ERP_2016,ERP_2017,ERP_2018,ERP_2019,ERP_2020,EJD_Total_Level
36,1660,403041087,41087,Seaford (SA),40304,Onkaparinga,403,Adelaide - South,4GADE,Greater Adelaide,4,South Australia,23.5763,138.4819973,-35.19794688,28226.48836,473.7183345,192.2268526,1938.401101,324.7409326,1955.894333,773.0816121,3450.186911,2116.947743,1095.829782,414.0432195,928.033439,428.8863948,1791.740242,884.9978642,2056.932995,2659.399425,4160.235816,435.718858,1107.480049,0,0,21397,22074,22828,23418,23909,24528,25076,Lv 5
572,1643,403031070,41070,Panorama,40303,Mitcham,403,Adelaide - South,4GADE,Greater Adelaide,4,South Australia,5.7425,138.5884728,-35.00260665,54915.87497,601.8225783,348.0113493,3547.966489,704.815889,3273.948313,1517.397217,5757.285614,3635.917925,1868.769648,892.6477422,2137.279681,832.8505755,3941.097943,1848.575963,4216.163948,5232.984428,9658.248515,876.9451736,2214.398128,0,0,8224,8274,8324,8410,8508,8594,8716,Lv 8
806,1581,401021009,41009,Nairne,40102,Adelaide Hills,401,Adelaide - Central and Hills,4GADE,Greater Adelaide,4,South Australia,24.8562,138.9119088,-35.03253963,26927.89912,568.0693441,211.7974697,1933.890193,332.0703443,1712.3175,800.4710307,2875.272188,1895.401357,1108.543608,445.1326015,975.9309797,424.5058991,1943.970645,859.4677769,1966.306126,2451.546105,3948.2251,432.8882238,1066.170987,0,0,4853,4982,5124,5233,5279,5330,5387,Lv 4
807,1582,401021010,41010,Uraidla - Summertown,40102,Adelaide Hills,401,Adelaide - Central and Hills,4GADE,Greater Adelaide,4,South Australia,119.1882,138.7432857,-34.92349254,35051.52256,685.6888396,282.7307769,2462.662806,431.9070667,2225.443031,1042.481019,3639.816917,2407.776514,1409.04305,591.8456784,1298.021724,554.9961944,2600.713713,1138.712265,2682.848083,3220.761998,5210.335502,568.1401251,1356.484628,0,0,5520,5524,5529,5544,5555,5640,5745,Lv 6
814,1596,401071024,41024,Unley - Parkside,40107,Unley,401,Adelaide - Central and Hills,4GADE,Greater Adelaide,4,South Australia,7.0726,138.6189078,-34.9537917,72245.69358,712.7940051,601.8812182,3869.351915,936.7650406,3977.551644,2003.420403,7323.807077,4952.430652,2239.353819,1281.424563,3178.280434,1211.699535,6511.206538,2419.883936,5858.973123,6306.603693,12370.9771,1098.221417,3103.247776,0,0,20646,20733,20835,20930,20967,21022,21131,Lv 10
821,1597,402011025,41025,Gawler - North,40201,Gawler - Two Wells,402,Adelaide - North,4GADE,Greater Adelaide,4,South Australia,145.5294,138.7150515,-34.56159337,29018.89705,715.7784342,220.2084105,2524.843009,330.7209692,2014.510184,898.3493762,3104.048133,1960.945316,1222.967646,445.8718358,915.3673324,426.9397811,1852.469313,945.6694829,2040.717,2689.581454,4052.008602,421.995913,1144.987734,0,0,9188,9267,9343,9419,9481,9534,9582,Lv 5
822,1598,402011026,41026,Gawler - South,40201,Gawler - Two Wells,402,Adelaide - North,4GADE,Greater Adelaide,4,South Australia,76.7139,138.7615905,-34.61041366,32420.79676,648.5558312,203.3310405,2305.226006,321.8278953,1975.244757,880.0937255,4008.057215,2437.679419,1239.035664,486.4612383,1052.037065,509.422499,2011.735748,1024.985812,2247.609406,3155.90237,5027.780219,507.284936,1257.588892,0,0,19089,19504,20062,20467,20779,21078,21371,Lv 5
823,1599,402011027,41027,Lewiston - Two Wells,40201,Gawler - Two Wells,402,Adelaide - North,4GADE,Greater Adelaide,4,South Australia,84.6217,138.5572686,-34.60486626,25926.04914,1008.923762,193.5587557,2011.850573,305.1347028,1682.443368,799.4220904,2696.916829,1740.953742,1207.335347,402.6625768,860.2765073,393.7648362,1740.722179,802.7933961,1882.436731,2261.784846,3557.57185,394.2926829,985.5989583,0,0,5555,5612,5686,5742,5793,5848,6118,Lv 4
849,1635,403021062,41062,Morphettville,40302,Marion,403,Adelaide - South,4GADE,Greater Adelaide,4,South Australia,6.2005,138.5434944,-34.98457683,58887.96553,617.256422,378.4029677,3758.206876,829.9020884,3668.761345,1619.981566,6075.045594,4184.031171,2428.02883,1027.807689,2341.694189,935.4183791,4311.482706,1928.528401,4662.215479,5107.300385,9574.444149,1221.29035,2268.456919,0,0,14540,14756,14982,15171,15369,15651,16010,Lv 9
878,1588,401041016,41016,Rostrevor - Magill,40104,Campbelltown (SA),401,Adelaide - Central and Hills,4GADE,Greater Adelaide,4,South Australia,9.9383,138.6793747,-34.89846028,50378.59138,610.6391612,348.2377085,3241.279056,604.4085573,3148.732659,1464.196301,5376.109707,3442.747639,1897.469132,859.6976435,1880.942012,806.874808,3805.309855,1619.631154,4020.512226,4933.053112,7823.527741,786.2154154,1998.367387,0,0,21779,21948,22085,22204,22407,22834,23299,Lv 8
879,1589,401051017,41017,Norwood (SA),40105,Norwood - Payneham - St Peters,401,Adelaide - Central and Hills,4GADE,Greater Adelaide,4,South Australia,3.8926,138.6340202,-34.92288588,84387.9754,716.9376725,666.0798231,4497.410211,1044.797964,4645.040612,2265.759225,8497.112805,6130.178158,2723.07336,1699.635811,4008.788654,1496.068756,8105.794349,2832.405987,7554.058395,7468.360106,12788.8073,1379.058849,3209.543319,0,0,10323,10356,10397,10473,10570,10677,10845,Lv 11
880,1592,401061020,41020,Nailsworth - Broadview,40106,Prospect - Walkerville,401,Adelaide - Central and Hills,4GADE,Greater Adelaide,4,South Australia,2.3161,138.6103233,-34.88395745,67347.29388,689.038947,434.0154261,4683.134772,845.699296,4094.159218,2207.437746,7169.610293,4699.795156,2654.801994,1370.486425,2566.168432,1072.243427,4996.59973,2197.762572,5440.234435,5756.44618,10429.1397,1100.494459,2664.859661,0,0,6221,6246,6277,6266,6280,6317,6386,Lv 10
881,1593,401061021,41021,Prospect,40106,Prospect - Walkerville,401,Adelaide - Central and Hills,4GADE,Greater Adelaide,4,South Australia,5.4754,138.5926959,-34.88401384,69050.47716,670.7373482,464.547299,4553.551728,878.7220852,4138.085002,2089.989224,7253.836593,4824.639451,2634.979914,1313.655699,2825.817011,1127.592716,5361.741532,2299.030974,5918.52967,5924.390363,10606.68262,1160.265918,2715.134961,0,0,14829,14850,14847,14906,14980,15203,15441,Lv 10
882,1579,401021007,41007,Mount Barker,40102,Adelaide Hills,401,Adelaide - Central and Hills,4GADE,Greater Adelaide,4,South Australia,54.1038,138.8637323,-35.06906579,35321.50894,682.968457,247.7032383,2514.217508,449.5939773,2139.949709,997.5276628,4268.464047,2506.509652,1369.485747,569.8310893,1186.158343,588.8545286,2392.045773,1128.425947,2563.318026,3306.389447,5244.109913,518.571069,1412.187731,0,0,16659,17203,17639,18071,18627,19479,20435,Lv 6
883,1580,401021008,41008,Mount Barker Region,40102,Adelaide Hills,401,Adelaide - Central and Hills,4GADE,Greater Adelaide,4,South Australia,395.6658,138.9044974,-35.09070045,26790.07758,737.4513323,400.5668851,1952.881471,324.0707005,1753.030625,788.5242636,2785.405002,1847.380237,1106.831879,436.821554,959.205254,422.6280787,1917.176889,846.3968788,1926.265495,2359.707477,3772.975852,423.6409948,1038.51051,0,0,6176,6255,6341,6426,6556,6679,6818,Lv 4
884,1573,401011001,41001,Adelaide,40101,Adelaide City,401,Adelaide - Central and Hills,4GADE,Greater Adelaide,4,South Australia,10.4824,138.6006471,-34.92855879,164865.0067,827.1954442,1524.692331,5683.81112,2661.698284,6813.927373,3368.474877,12573.26688,12148.43928,4441.484027,4633.383551,10973.67181,2705.62529,17601.76114,5397.094064,23334.35039,14409.78586,23487.58383,3178.459242,4742.089078,0,0,15397,15840,16285,16947,17484,18102,18829,Lv 18
885,1574,401011002,41002,North Adelaide,40101,Adelaide City,401,Adelaide - Central and Hills,4GADE,Greater Adelaide,4,South Australia,5.0909,138.5953402,-34.90843949,107210.3295,762.0619321,797.859436,5387.890162,1493.063972,5577.521281,2691.426532,9207.662102,7871.63184,3455.096209,2419.641518,5502.71712,1708.02037,9530.670116,3484.591007,11390.30491,8935.339054,18064.73349,2127.246219,3663.632223,0,0,7227,7245,7267,7301,7323,7354,7348,Lv 14
886,1575,401021003,41003,Adelaide Hills,40102,Adelaide Hills,401,Adelaide - Central and Hills,4GADE,Greater Adelaide,4,South Australia,364.439,138.8820871,-34.81031385,21793.28207,707.4144621,165.5159093,1616.226416,260.377191,1448.313278,641.1486982,2281.310075,1510.813939,931.1018737,335.9070318,732.8063451,345.1253875,1506.758409,687.9820903,1511.556743,2015.656753,3050.897383,363.5476599,821.8581076,0,0,6941,6927,6914,6941,6994,7013,7012,Lv 4
887,1576,401021004,41004,Aldgate - Stirling,40102,Adelaide Hills,401,Adelaide - Central and Hills,4GADE,Greater Adelaide,4,South Australia,117.2141,138.7255236,-35.0348919,36064.49604,638.3694956,264.1825585,2365.564353,432.2782555,2300.936436,998.1375359,3889.682162,2743.595609,1399.45176,591.9291696,1325.708621,576.3438028,2751.603762,1138.686965,2640.248234,3356.610151,5340.027091,629.0560986,1422.038951,0,0,17922,17938,17966,17981,18008,18019,18064,Lv 6
888,1577,401021005,41005,Hahndorf - Echunga,40102,Adelaide Hills,401,Adelaide - Central and Hills,4GADE,Greater Adelaide,4,South Australia,110.1516,138.7764879,-35.09086521,27253.27834,579.498217,213.3786943,1993.84615,322.4807679,1721.211987,775.8396647,2920.652765,2124.235034,1085.785437,441.467927,1002.938593,430.0558523,1938.01386,853.4780157,1923.352323,2426.399902,4023.426694,444.3573823,1043.966956,0,0,4465,4509,4550,4580,4593,4588,4601,Lv 5
889,1578,401021006,41006,Lobethal - Woodside,40102,Adelaide Hills,401,Adelaide - Central and Hills,4GADE,Greater Adelaide,4,South Australia,202.4981,138.8696753,-34.94879657,27391.64103,845.0131857,205.5859277,2293.143965,322.6056084,1792.923326,889.7760324,2860.54223,1907.162177,1095.981137,416.0891221,925.194356,411.8499477,1872.52763,850.0695675,2072.496563,2406.650666,3778.046877,423.4257399,1029.825928,0,0,9156,9127,9101,9104,9146,9253,9315,Lv 5
890,1583,401031011,41011,Burnside - Wattle Park,40103,Burnside,401,Adelaide - Central and Hills,4GADE,Greater Adelaide,4,South Australia,11.305,138.6720189,-34.92588845,58557.72113,645.0583552,447.8364149,3603.463836,740.8194562,3455.366237,1613.391521,6057.18959,4057.27925,2046.004026,1060.579587,2414.668425,1028.604903,4794.71819,1889.112725,4741.108428,5694.633378,9126.745064,933.3268995,2267.733128,0,0,18952,19040,19125,19197,19254,19302,19415,Lv 9
891,1586,401041014,41014,Athelstone,40104,Campbelltown (SA),401,Adelaide - Central and Hills,4GADE,Greater Adelaide,4,South Australia,6.204,138.7054061,-34.87148947,43308.84074,582.2531508,297.0405158,3002.131875,526.529266,2776.880613,1306.518209,4697.756879,2931.407559,1747.924431,727.7570261,1571.815972,685.5182434,3139.482597,1406.288245,3422.880251,4017.570324,6561.258441,685.4401115,1719.428909,0,0,9451,9404,9326,9336,9360,9415,9522,Lv 7
892,1584,401031012,41012,Glenside - Beaumont,40103,Burnside,401,Adelaide - Central and Hills,4GADE,Greater Adelaide,4,South Australia,9.5264,138.6585744,-34.9585129,53738.35236,628.1137268,403.0553694,3230.623583,685.2829118,3171.625312,1490.418425,5731.121732,3858.206387,1877.93612,965.3857231,2194.07223,922.5332652,4389.360073,1742.287701,4282.820824,5057.513223,8368.545865,857.1429439,2102.703949,0,0,9640,9746,9862,9995,10077,10113,10187,Lv 8
893,1585,401031013,41013,Toorak Gardens,40103,Burnside,401,Adelaide - Central and Hills,4GADE,Greater Adelaide,4,South Australia,6.6869,138.64117,-34.93737587,74850.46261,717.4738669,667.2292461,4222.532757,1105.162325,4141.104325,2000.227992,7282.842576,5015.074544,2379.073749,1504.777031,3452.154989,1411.998489,6784.279708,2378.379019,6385.395409,6292.753651,12792.94673,1132.340056,2825.610835,0,0,16086,16152,16229,16318,16383,16401,16525,Lv 10
894,1587,401041015,41015,Paradise - Newton,40104,Campbelltown (SA),401,Adelaide - Central and Hills,4GADE,Greater Adelaide,4,South Australia,9.2257,138.6718768,-34.87753426,58646.33145,652.2775501,386.3395048,3928.812111,689.2498499,3736.536638,1737.799309,6640.505074,3969.560688,2298.781234,970.6728796,2090.757131,932.9550161,4168.794674,1899.091898,4603.287821,5219.54283,9410.811546,904.7587542,2408.675437,0,0,19838,19937,20034,20134,20228,20490,20790,Lv 9
895,1590,401051018,41018,Payneham - Felixstow,40105,Norwood - Payneham - St Peters,401,Adelaide - Central and Hills,4GADE,Greater Adelaide,4,South Australia,5.2284,138.6481303,-34.9002462,61851.33689,651.1133688,411.4359358,4065.59244,742.3435121,3848.658772,2069.319976,6595.270274,4341.98327,2263.874683,1112.37689,2423.448938,1017.396287,4898.29403,2012.925557,4945.840751,5334.522687,9640.111521,971.4176954,2449.626708,0,0,12611,12620,12632,12682,12742,12755,12903,Lv 9
896,1595,401071023,41023,Goodwood - Millswood,40107,Unley,401,Adelaide - Central and Hills,4GADE,Greater Adelaide,4,South Australia,7.1977,138.5894161,-34.95578518,78274.42496,689.7343615,583.5322087,4405.806946,1157.675615,4417.809839,2054.724093,7450.263573,5573.837147,2642.919935,1523.908427,3659.961536,1305.282194,6810.123919,2518.28598,6974.27137,6817.722199,12885.55602,1308.747031,3027.227199,0,0,18049,18090,18104,18169,18183,18186,18285,Lv 11
897,1591,401051019,41019,St Peters - Marden,40105,Norwood - Payneham - St Peters,401,Adelaide - Central and Hills,4GADE,Greater Adelaide,4,South Australia,5.9826,138.6278228,-34.90401161,76062.42791,693.8856985,529.2277259,4522.158725,970.2593013,4448.607411,2254.203325,7636.583231,5347.325939,2605.725023,1473.955156,3318.510364,1231.452669,6441.874793,2671.45004,6617.344434,6792.630387,11761.65123,1286.69184,2984.227845,0,0,13427,13393,13367,13417,13445,13624,13714,Lv 11
898,1594,401061022,41022,Walkerville,40106,Prospect - Walkerville,401,Adelaide - Central and Hills,4GADE,Greater Adelaide,4,South Australia,3.53,138.6171095,-34.89278583,72181.42332,680.7411465,497.7054472,4349.217509,915.8670376,4168.244327,2102.592109,7281.254477,5110.539992,2551.96554,1427.007363,3126.76961,1166.461408,5892.458982,2412.051273,6361.023,6479.466803,11333.5369,1223.389995,2751.658374,0,0,7447,7732,7781,7862,7946,8000,8094,Lv 10
899,1600,402021028,41028,Craigmore - Blakeview,40202,Playford,402,Adelaide - North,4GADE,Greater Adelaide,4,South Australia,11.8807,138.7098741,-34.68592362,31654.9539,581.2459666,214.8191949,2442.572527,355.6528697,2007.373604,890.7134549,3635.47495,2148.46992,1333.381303,467.0893713,990.6586536,491.6635181,1991.982589,997.5501628,2286.746396,3238.603474,4795.597195,448.314776,1196.149868,0,0,17981,18179,18365,18750,18997,19357,19693,Lv 5
900,1601,402021029,41029,Davoren Park,40202,Playford,402,Adelaide - North,4GADE,Greater Adelaide,4,South Australia,9.4648,138.6664856,-34.68744781,36313.50635,608.9770341,277.8215207,3294.117709,456.3629378,2320.527536,1033.048774,3870.369287,2345.497612,1670.436849,508.411288,1087.36698,525.2244205,2169.045257,1125.306242,2915.836184,3435.046446,5460.789534,516.6431512,1344.665117,0,0,17546,17791,17966,18050,18116,18166,18291,Lv 6
901,1615,402041043,41043,Parafield Gardens,40204,Salisbury,402,Adelaide - North,4GADE,Greater Adelaide,4,South Australia,7.0272,138.6107736,-34.78254032,44896.40343,685.7188767,289.7316999,3681.638416,535.5833107,2786.331514,1438.068079,4948.273365,3029.100375,2029.240901,708.9654938,1436.104539,664.9929908,2906.041868,1411.278612,3509.212212,4198.827647,6646.220391,670.7964091,1706.241146,0,0,16426,16833,17303,17639,17987,18032,18164,Lv 7
902,1602,402021030,41030,Elizabeth,40202,Playford,402,Adelaide - North,4GADE,Greater Adelaide,4,South Australia,9.2606,138.6640993,-34.7382257,46955.57424,642.6572303,258.2222816,4736.719157,479.3378981,2467.041898,1210.96622,5405.396538,3016.170459,1726.614063,616.5937873,1270.849957,644.941789,2491.597811,1548.307805,3753.08233,3974.65147,8842.132602,645.3490701,1601.957505,0,0,10348,10411,10463,10494,10553,10565,10626,Lv 7
903,1603,402021031,41031,Elizabeth East,40202,Playford,402,Adelaide - North,4GADE,Greater Adelaide,4,South Australia,8.1639,138.6849214,-34.72583114,35576.83803,579.0019038,236.0779418,2861.198389,452.5918611,2206.981175,1051.5357,3900.39786,2358.847184,1485.77647,530.9603593,1122.011084,524.0232968,2253.854649,1127.821274,2689.734184,3317.822334,5745.439787,516.589663,1345.999609,0,0,12778,12918,13066,13204,13333,13391,13449,Lv 6
904,1604,402021032,41032,Munno Para West - Angle Vale,40202,Playford,402,Adelaide - North,4GADE,Greater Adelaide,4,South Australia,44.3104,138.6501212,-34.65016894,30125.94004,722.9050935,209.3161756,2318.321381,340.5901919,1954.34365,868.5724496,3400.553412,2151.451945,1298.528042,444.386278,958.4942133,436.8673633,1919.862524,954.7153705,2265.532951,2911.486498,4301.970585,433.9325354,1116.255512,0,0,10501,11409,12336,13091,13816,14611,15577,Lv 5
905,1605,402021033,41033,One Tree Hill,40202,Playford,402,Adelaide - North,4GADE,Greater Adelaide,4,South Australia,130.1694,138.7699195,-34.70211938,26302.73118,564.0199898,189.0945578,2076.151139,301.9154756,1746.141105,789.9078837,2939.631233,1819.638079,1135.309375,399.7289256,852.151142,406.1648525,1713.092561,833.8523462,1878.60097,2408.563205,3834.575142,405.8167654,1015.215586,0,0,2513,2525,2537,2527,2502,2510,2513,Lv 4
906,1606,402021034,41034,Smithfield - Elizabeth North,40202,Playford,402,Adelaide - North,4GADE,Greater Adelaide,4,South Australia,7.9871,138.6889278,-34.6919871,37042.40637,623.0400535,241.5380245,2945.609321,411.4513953,2228.549252,1035.589842,4686.48493,2737.144412,1485.648874,544.4000966,1149.016798,542.6499588,2243.591461,1183.776459,2727.120698,3394.655432,5618.570385,520.1213342,1418.907161,0,0,12348,12340,12337,12344,12331,12301,12269,Lv 6
907,1607,402021035,41035,Virginia - Waterloo Corner,40202,Playford,402,Adelaide - North,4GADE,Greater Adelaide,4,South Australia,135.566,138.5485916,-34.68722388,35001.73309,1869.042286,234.3143606,2728.835807,412.6477439,2163.382553,1188.005223,3618.206065,2243.576467,1713.764214,516.5207319,1108.903163,502.21673,2210.965306,1164.207969,2599.846903,2914.423828,4714.248434,510.5268143,1254.702255,0,0,4139,4230,4278,4403,4544,4700,4877,Lv 6
908,1608,402031036,41036,Enfield - Blair Athol,40203,Port Adelaide - East,402,Adelaide - North,4GADE,Greater Adelaide,4,South Australia,15.1765,138.600003,-34.85429361,75996.08628,780.8159407,456.3108481,6896.084602,1111.80517,4867.89772,3524.881871,8783.539605,4882.994702,3793.601123,1202.448376,2457.884222,1067.677684,4827.216101,2361.956769,5797.071891,5920.468311,10443.64578,1098.528375,3001.093204,0,0,23199,23481,23761,23909,24122,24418,24758,Lv 11
909,1609,402031037,41037,Northgate - Oakden - Gilles Plains,40203,Port Adelaide - East,402,Adelaide - North,4GADE,Greater Adelaide,4,South Australia,11.2336,138.6440153,-34.84907268,53594.30526,649.407873,314.3554464,3977.083553,608.6627694,3384.701115,1793.537117,6063.162027,3525.106487,2240.3914,758.3380206,1581.692265,794.0845371,3301.992801,1714.395964,4489.946933,4821.617871,8756.903558,757.0368362,2197.682849,0,0,23419,24242,25130,25747,26233,26900,27479,Lv 8
910,1610,402031038,41038,Windsor Gardens,40203,Port Adelaide - East,402,Adelaide - North,4GADE,Greater Adelaide,4,South Australia,8.4298,138.6407412,-34.87089543,55246.86562,638.3496291,343.6212192,4251.276454,652.7970745,3684.294633,1856.5159,6200.29321,3646.670287,2238.784699,870.6239962,1858.762308,858.5072022,3786.431366,1774.286445,4170.945597,4813.730415,8441.768314,867.1677124,2354.976039,0,0,20162,20436,20696,20945,21240,21607,21945,Lv 8
912,1611,402041039,41039,Dry Creek - North,40204,Salisbury,402,Adelaide - North,4GADE,Greater Adelaide,4,South Australia,38.5669,138.5674203,-34.78275711,37290.87478,622.3933999,255.7686782,2977.830173,472.0639554,2321.431281,1205.292118,4006.831005,2528.106649,1989.008904,599.0116774,1257.09207,558.3065814,2509.221478,1164.52041,2947.827506,3235.627474,5326.912408,563.6146718,1409.620331,0,0,0,0,0,0,0,0,0,Lv 6
913,1612,402041040,41040,Ingle Farm,40204,Salisbury,402,Adelaide - North,4GADE,Greater Adelaide,4,South Australia,7.4263,138.6470078,-34.83017738,50822.46568,693.605095,302.2479941,4160.573692,586.3027249,3307.11249,1969.53625,5917.402881,3306.065598,2350.118724,716.2016758,1472.485561,722.2359873,3053.587501,1609.484615,3800.510893,4489.160296,7699.79749,723.50965,2073.869113,0,0,15124,15126,15135,15077,15024,15097,15209,Lv 8
914,1613,402041041,41041,Para Hills,40204,Salisbury,402,Adelaide - North,4GADE,Greater Adelaide,4,South Australia,10.173,138.658358,-34.80393139,46149.91712,681.9821298,311.6634752,3865.364158,538.5888319,3074.68342,1683.334964,5223.807146,3074.05959,2074.609873,671.0029107,1353.953168,682.0281856,2826.123137,1484.823346,3437.275997,4240.396039,6692.751047,654.4501037,1864.90534,0,0,15046,14970,14853,14876,14828,14826,14870,Lv 7
915,1614,402041042,41042,Parafield,40204,Salisbury,402,Adelaide - North,4GADE,Greater Adelaide,4,South Australia,4.6289,138.630995,-34.79662792,47804.41712,667.7141647,307.9502345,3981.280875,593.3864496,3002.484472,1693.954935,5355.048082,3189.745904,2194.707162,742.8639241,1550.789444,706.8428241,3093.327757,1516.991839,3740.384644,4303.508837,6894.478068,706.8086938,1849.913625,0,0,102,110,118,118,118,118,118,Lv 7
916,1616,402041044,41044,Paralowie,40204,Salisbury,402,Adelaide - North,4GADE,Greater Adelaide,4,South Australia,8.3213,138.6041174,-34.75787342,41559.43852,679.1334516,274.2604523,3464.515537,486.6551054,2588.02207,1290.660139,4524.29521,2914.623116,1867.688602,626.0472448,1320.962898,604.767585,2669.379214,1311.611485,3466.737173,3858.643986,5952.382706,601.9481379,1550.633377,0,0,16725,16773,16989,17060,17146,17364,17528,Lv 7
917,1617,402041046,41046,Salisbury,40204,Salisbury,402,Adelaide - North,4GADE,Greater Adelaide,4,South Australia,10.7696,138.6389109,-34.77113067,52168.38675,758.4848291,298.1485982,5132.115798,545.3455532,3156.358965,1569.353023,5989.921421,3479.961531,2239.865188,749.0752151,1535.869669,815.4280589,3077.537534,1648.726014,4318.313995,4515.768229,7846.550383,693.0106759,1915.664612,0,0,17260,17533,17811,18034,18197,18369,18579,Lv 8
918,1618,402041047,41047,Salisbury East,40204,Salisbury,402,Adelaide - North,4GADE,Greater Adelaide,4,South Australia,14.8505,138.6764534,-34.77163047,42875.43843,668.300927,267.1258397,3635.579429,500.2636032,2937.563951,1470.250453,4753.275206,2781.127395,1882.691497,598.1483613,1246.584427,619.5257492,2607.558601,1370.383343,3207.784858,4062.392246,6286.374829,637.5032165,1771.031845,0,0,17568,17637,17731,17810,17934,18078,18247,Lv 7
919,1619,402041048,41048,Salisbury North,40204,Salisbury,402,Adelaide - North,4GADE,Greater Adelaide,4,South Australia,31.3003,138.6253958,-34.72655516,45794.38304,759.1235948,293.3590269,5388.844515,524.8567461,2782.247696,1441.92429,4406.526517,2484.979941,2297.396727,560.6229508,1182.043738,561.9861862,2639.166827,1296.677768,6713.705895,3418.251598,5396.554941,531.1606722,1513.241658,0,0,16918,17211,17512,17624,17826,17964,18149,Lv 7
920,1620,402041171,41171,Mawson Lakes - Globe Derby Park,40204,Salisbury,402,Adelaide - North,4GADE,Greater Adelaide,4,South Australia,9.6165,138.6039984,-34.80206283,52901.42335,715.7719176,321.4071012,4500.516579,635.777761,3228.021173,1768.878035,5594.526695,3647.798617,2566.24378,993.2621827,1650.676384,820.6628128,3727.375386,1611.591599,4032.016132,5008.268438,7428.489832,772.0297709,1976.27574,0,0,12842,13256,13650,13897,14108,14278,14450,Lv 8
921,1621,402041172,41172,Pooraka - Cavan,40204,Salisbury,402,Adelaide - North,4GADE,Greater Adelaide,4,South Australia,7.4904,138.6164823,-34.82570257,59605.74218,794.7500433,362.2376077,5512.081135,756.3959308,3871.413997,2904.748578,6478.203002,3709.989013,3169.973581,892.2326208,1812.104552,839.7160753,3625.893059,1885.09007,4576.295073,4785.917571,8116.013081,835.7044979,2375.110021,0,0,7837,7843,7863,7910,7956,7988,8059,Lv 9
922,1622,402051049,41049,Golden Grove,40205,Tea Tree Gully,402,Adelaide - North,4GADE,Greater Adelaide,4,South Australia,26.6144,138.739053,-34.76873782,34299.66367,590.6555207,241.1719616,2686.330442,379.7475077,2260.784298,989.9301044,4208.605214,2472.822154,1458.435025,490.1359359,1031.775886,515.6915885,2080.392373,1073.332944,2421.627759,3342.786472,5003.851248,492.217951,1336.029327,0,0,10172,10317,10459,10527,10550,10495,10486,Lv 6
923,1623,402051050,41050,Greenwith,40205,Tea Tree Gully,402,Adelaide - North,4GADE,Greater Adelaide,4,South Australia,6.0371,138.7138276,-34.765651,34676.61962,582.6391078,231.0848453,2872.424694,397.5871568,2289.778889,1082.697053,4040.95594,2350.572982,1514.34873,498.5308059,1040.183922,523.1587124,2131.202125,1095.806381,2527.850802,3262.186328,5121.671434,495.6975451,1361.861848,0,0,9210,9172,9127,9119,9136,9171,9216,Lv 6
924,1624,402051051,41051,Highbury - Dernancourt,40205,Tea Tree Gully,402,Adelaide - North,4GADE,Greater Adelaide,4,South Australia,12.001,138.7153783,-34.85436308,45268.35046,602.6798474,301.2181118,3197.276023,549.2754833,2910.605833,1335.005113,5192.653783,3134.09234,1822.599015,724.097599,1575.239071,707.0379031,3136.409819,1471.884542,3498.286465,4042.188716,6953.463624,702.0799674,1839.104546,0,0,10660,10650,10648,10744,10781,10853,10943,Lv 7
926,1625,402051052,41052,Hope Valley - Modbury,40205,Tea Tree Gully,402,Adelaide - North,4GADE,Greater Adelaide,4,South Australia,10.3124,138.6882191,-34.84283039,51627.30953,672.3731093,314.6574173,3829.293177,633.1156487,3237.808661,1518.957518,6765.013033,3583.296901,1946.96517,718.5644617,1525.380446,741.7500883,2964.733546,1719.873895,3914.388355,4452.510171,8457.809705,718.0418889,2137.007157,0,0,16471,16618,16710,16721,16766,16935,17149,Lv 8
927,1626,402051053,41053,Modbury Heights,40205,Tea Tree Gully,402,Adelaide - North,4GADE,Greater Adelaide,4,South Australia,9.9089,138.6848889,-34.80949796,37972.38367,598.5487524,244.3110741,2924.170996,427.3237948,2476.395672,1175.791506,4334.664675,2546.195735,1645.529703,552.6796561,1158.628622,576.1587815,2403.264575,1213.159778,2729.551144,3843.906934,5666.346528,549.4564233,1542.638768,0,0,19372,19292,19205,19212,19272,19361,19454,Lv 6
928,1627,402051054,41054,Redwood Park,40205,Tea Tree Gully,402,Adelaide - North,4GADE,Greater Adelaide,4,South Australia,14.1403,138.7303995,-34.80310109,33402.7232,548.030352,228.3006896,2540.81554,377.2674986,2259.525765,999.1181304,3867.782503,2371.456802,1403.121022,489.0364682,1038.981753,505.124653,2128.264157,1084.419986,2391.142787,3193.330544,4886.464572,527.2319291,1347.326663,0,0,16227,16216,16212,16259,16368,16436,16478,Lv 5
929,1628,402051055,41055,St Agnes - Ridgehaven,40205,Tea Tree Gully,402,Adelaide - North,4GADE,Greater Adelaide,4,South Australia,12.2999,138.724731,-34.82720455,41218.88763,578.9446508,264.6939354,2972.608322,484.9138091,2781.408448,1206.61121,4701.068624,2880.998926,1784.926151,628.0587544,1361.001257,654.3335568,2786.955667,1339.425917,3026.397526,3668.558078,6295.392007,640.4563639,1722.995705,0,0,12523,12542,12572,12617,12667,12723,12811,Lv 7
930,1633,403021060,41060,Marino - Seaview Downs,40302,Marion,403,Adelaide - South,4GADE,Greater Adelaide,4,South Australia,12.2123,138.5350082,-35.04431664,40514.26046,541.9002697,274.1935635,2761.56342,495.021003,2625.776639,1116.564866,4415.244045,2897.658368,1569.223847,638.6877865,1481.899081,649.3918937,2781.489357,1319.412985,2905.286706,3812.105146,6569.678775,669.2698384,1589.8502,0,0,9498,9493,9535,9604,9619,9666,9733,Lv 6
931,1629,403011056,41056,Brighton (SA),40301,Holdfast Bay,403,Adelaide - South,4GADE,Greater Adelaide,4,South Australia,5.9168,138.5224989,-35.01855881,49405.42407,569.5170946,300.0308537,3092.816389,580.6407513,2981.11515,1284.606197,5376.824366,3667.799562,1770.614713,756.4547398,1815.110462,811.0334277,3304.116546,1560.165135,3545.756647,4696.371221,8883.896382,839.5797452,1936.004258,0,0,14099,14152,14202,14256,14412,14591,14766,Lv 8
932,1634,403021061,41061,Mitchell Park,40302,Marion,403,Adelaide - South,4GADE,Greater Adelaide,4,South Australia,7.5687,138.5612566,-35.00849581,55548.9517,594.4394697,318.0854288,3595.35647,698.9138966,3224.552778,1469.802082,5889.413392,3676.195428,1944.249388,844.3790808,2837.555861,823.2904828,3634.216743,1733.643561,4430.88887,5647.948112,9452.548131,861.9508725,2060.611074,0,0,15099,15251,15405,15535,15744,16023,16330,Lv 8
933,1630,403011057,41057,Glenelg (SA),40301,Holdfast Bay,403,Adelaide - South,4GADE,Greater Adelaide,4,South Australia,7.2232,138.5195292,-34.98357935,58986.50732,614.0612825,372.049033,3690.701898,775.6462399,3634.02779,1567.799167,6419.916768,5005.591903,2227.760848,980.7814767,2268.674481,1086.866313,4142.251783,2005.368801,4323.514489,5113.655465,9323.45355,1055.361252,2420.764855,0,0,20578,20590,20632,20703,20865,21050,21195,Lv 9
934,1631,403021058,41058,Edwardstown,40302,Marion,403,Adelaide - South,4GADE,Greater Adelaide,4,South Australia,5.5375,138.5651653,-34.97798436,56211.1496,620.6598941,346.6884647,4207.178398,813.1270601,3565.389092,1695.416836,6081.750899,3764.663182,2227.185803,962.5823348,2151.303408,880.4190638,3958.271045,1809.002932,4187.789736,4842.144009,8909.66167,927.0717257,2302.703776,0,0,13530,13672,13862,14033,14095,14249,14403,Lv 8
935,1632,403021059,41059,Hallett Cove,40302,Marion,403,Adelaide - South,4GADE,Greater Adelaide,4,South Australia,9.2762,138.5110102,-35.07282256,33382.96911,504.0288136,233.4385565,2412.560402,404.9335017,2212.742565,943.8599247,3811.109611,2478.381613,1321.162946,521.3008132,1167.206591,525.1736449,2253.450443,1073.093898,2334.314622,3117.442184,5041.038953,523.7177698,1315.233048,0,0,12761,12753,12734,12752,12743,12761,12864,Lv 5
936,1636,403021063,41063,Sheidow Park - Trott Park,40302,Marion,403,Adelaide - South,4GADE,Greater Adelaide,4,South Australia,9.3899,138.5382435,-35.07248033,32034.41251,498.381852,218.2979618,2302.361101,394.0244798,2130.576279,910.8583302,3505.222168,2282.91816,1270.738702,483.8967129,1111.270478,500.9481016,2125.784911,1033.38399,2183.732376,3074.463126,5081.35849,512.5990864,1270.199666,0,0,10153,10228,10306,10394,10451,10439,10519,Lv 5
937,1637,403021064,41064,Warradale,40302,Marion,403,Adelaide - South,4GADE,Greater Adelaide,4,South Australia,6.0145,138.5405247,-35.01255586,54566.52022,596.771011,324.8312588,3373.090746,670.3269093,3233.399661,1409.325584,6250.364332,3949.14857,1964.882718,872.9698208,2137.807082,840.7509729,3626.751282,1755.433061,4079.885303,5127.335433,9484.131142,1026.976303,2077.574956,0,0,14532,14835,15173,15437,15830,16238,16637,Lv 8
939,1642,403031069,41069,Mitcham (SA),40303,Mitcham,403,Adelaide - South,4GADE,Greater Adelaide,4,South Australia,11.4472,138.619663,-34.97805649,57601.37809,659.0793068,391.6221132,3380.854012,712.3935958,3283.445278,1535.752524,5960.628657,4029.638819,1904.066987,997.8035084,2271.022132,908.3804774,4914.212671,1853.299475,4567.050249,5986.139666,9198.242973,922.3446125,2255.006902,0,0,16336,16335,16349,16389,16539,16572,16638,Lv 9
940,1638,403031065,41065,Belair,40303,Mitcham,403,Adelaide - South,4GADE,Greater Adelaide,4,South Australia,24.7761,138.6485932,-34.9977587,43203.4015,584.3014491,305.5021195,2777.207503,544.3465282,2610.708259,1206.621957,4454.567901,3015.829117,1581.993978,744.6402901,1666.159372,678.6973935,3360.454391,1383.100115,3364.834593,4183.560593,6897.618061,695.7388529,1673.082396,0,0,4693,4689,4686,4682,4705,4684,4665,Lv 7
941,1639,403031066,41066,Bellevue Heights,40303,Mitcham,403,Adelaide - South,4GADE,Greater Adelaide,4,South Australia,8.7154,138.5860549,-35.0245338,51623.33047,576.9685628,284.3363801,2939.719576,568.5056081,2806.708821,1224.630212,4775.810352,3181.650257,1609.312645,702.4302161,1760.445442,703.2299641,3124.314291,1542.754115,3402.232822,6452.908234,11840.5847,751.8551909,1782.25351,0,0,7543,7555,7569,7605,7649,7649,7720,Lv 8
942,1640,403031067,41067,Blackwood,40303,Mitcham,403,Adelaide - South,4GADE,Greater Adelaide,4,South Australia,16.928,138.6273534,-35.02753334,40369.80051,583.7867361,272.4378795,2591.598981,478.4858476,2485.875689,1113.073028,4433.383529,2925.809621,1444.79576,648.1415512,1520.460529,657.57765,2932.873947,1265.445512,2935.470853,3848.48522,6569.665904,665.8613552,1634.148803,0,0,11996,12147,12307,12431,12574,12717,12885,Lv 6
943,1641,403031068,41068,Colonel Light Gardens,40303,Mitcham,403,Adelaide - South,4GADE,Greater Adelaide,4,South Australia,6.761,138.5869765,-34.97932085,61247.42115,633.3965097,402.6678873,3937.520349,806.4971906,3798.954836,1758.959024,6284.282378,4099.987708,2116.239786,1064.927819,2410.767539,969.6533025,4628.869392,1967.304545,4819.537218,5382.140354,10788.74617,995.5480537,2375.759115,0,0,15882,15928,15933,15985,15950,15905,15912,Lv 9
944,1644,403041071,41071,Aberfoyle Park,40304,Onkaparinga,403,Adelaide - South,4GADE,Greater Adelaide,4,South Australia,13.8426,138.6135136,-35.07783757,31536.10169,518.9139134,219.3155169,2143.703095,373.307688,2007.161788,872.378773,3517.412439,2280.746179,1200.125536,494.6266387,1123.236703,492.3300384,2171.421123,1002.77161,2206.01124,3106.940223,4957.283472,504.6027313,1243.655405,0,0,12035,11960,11863,11835,11784,11723,11687,Lv 5
945,1670,404011097,41097,Woodville - Cheltenham,40401,Charles Sturt,404,Adelaide - West,4GADE,Greater Adelaide,4,South Australia,8.8122,138.5385714,-34.86881377,63762.05386,645.0150156,375.1350517,5847.058045,817.0269167,4163.337469,2239.632045,6967.262933,4065.578762,3127.66418,1013.524316,2101.210799,938.743977,4058.652984,2024.199088,4855.186163,5074.57142,9613.7363,1000.072166,2540.618098,0,0,17168,17633,17929,18160,18446,18627,18873,Lv 9
946,1645,403041072,41072,Aldinga,40304,Onkaparinga,403,Adelaide - South,4GADE,Greater Adelaide,4,South Australia,35.3303,138.4683456,-35.28929125,23315.62375,482.7576753,177.6302783,1668.98088,268.1185979,1579.449289,662.014487,2565.620703,1743.61333,959.6301873,368.9651287,779.0407525,366.5127011,1556.694392,762.3121082,1574.369385,2183.441009,3464.444362,366.2486338,902.6361062,0,0,15243,15455,15627,15807,16017,16144,16279,Lv 4
947,1646,403041073,41073,Christie Downs,40304,Onkaparinga,403,Adelaide - South,4GADE,Greater Adelaide,4,South Australia,8.5727,138.4974304,-35.14482678,32743.19952,478.0315406,198.1327036,2171.516399,349.585579,1887.640527,837.7418812,4286.120164,2309.724523,1162.161299,482.4414247,1015.532703,472.5370091,1888.001278,1003.081727,2753.687265,3104.385489,5506.104866,540.0176801,1203.248523,0,0,9233,9382,9499,9556,9598,9670,9758,Lv 5
948,1649,403041076,41076,Coromandel Valley,40304,Onkaparinga,403,Adelaide - South,4GADE,Greater Adelaide,4,South Australia,4.4154,138.6234107,-35.04514938,37169.81604,574.0364668,259.4004459,2447.998913,459.041759,2311.093879,1027.40024,3949.250032,2639.394896,1369.219497,608.2326123,1390.908184,588.5828215,2675.117675,1180.230596,2731.348515,3628.85184,6023.506848,595.4003913,1449.030506,0,0,4449,4447,4435,4434,4455,4468,4490,Lv 6
949,1647,403041074,41074,Christies Beach,40304,Onkaparinga,403,Adelaide - South,4GADE,Greater Adelaide,4,South Australia,7.2164,138.4772378,-35.13636968,34021.03839,493.0082643,213.9646275,2600.001478,402.3692863,2135.961463,912.9245927,4010.237471,2456.223164,1247.564091,491.1414798,1112.925034,521.9107998,2155.324505,1092.480505,2377.496872,3188.838948,5584.162086,514.4124494,1319.255534,0,0,10274,10348,10382,10383,10428,10583,10755,Lv 6
950,1648,403041075,41075,Clarendon,40304,Onkaparinga,403,Adelaide - South,4GADE,Greater Adelaide,4,South Australia,123.3732,138.6549237,-35.12395088,26574.6507,559.5586753,195.8155807,1920.49133,331.1908574,1732.018099,767.64634,2862.417557,1878.549252,1084.543765,422.362183,956.8022244,418.1973775,1843.797846,844.7922734,1880.355537,2448.781998,3986.529538,436.3493182,1033.172835,0,0,2725,2731,2739,2750,2767,2764,2754,Lv 4
951,1652,403041079,41079,Hackham West - Huntfield Heights,40304,Onkaparinga,403,Adelaide - South,4GADE,Greater Adelaide,4,South Australia,4.374,138.514609,-35.14899352,29821.27891,486.2467514,200.5128085,2128.742788,350.6999769,1870.230073,825.6143588,3447.926849,2080.085278,1155.442962,457.2870886,1003.245147,447.4158621,1914.734183,940.441819,2193.477902,2811.953228,4830.215652,469.008604,1146.897453,0,0,7679,7664,7651,7666,7656,7676,7674,Lv 5
952,1650,403041077,41077,Flagstaff Hill,40304,Onkaparinga,403,Adelaide - South,4GADE,Greater Adelaide,4,South Australia,9.7527,138.581812,-35.04772106,36734.43008,533.0171191,270.8008551,2513.914786,467.25381,2428.209319,1021.598541,4007.837989,2691.86997,1432.075698,578.0955089,1328.446852,583.5585558,2473.891705,1160.387626,2554.669057,3462.478511,5945.365276,596.981379,1424.135598,0,0,10814,10786,10771,10767,10787,10822,10884,Lv 6
953,1651,403041078,41078,Hackham - Onkaparinga Hills,40304,Onkaparinga,403,Adelaide - South,4GADE,Greater Adelaide,4,South Australia,23.6435,138.5538128,-35.14653673,23478.13421,460.0911817,173.5787127,1737.823199,280.2913269,1595.072469,679.7137032,2590.319967,1688.459534,945.3965682,365.8158806,807.4299181,357.5331623,1581.882589,752.2156264,1621.803127,2130.830924,3535.6726,365.1789952,932.7533548,0,0,6509,6444,6352,6318,6280,6229,6322,Lv 4
954,1653,403041080,41080,Happy Valley,40304,Onkaparinga,403,Adelaide - South,4GADE,Greater Adelaide,4,South Australia,10.17,138.5811182,-35.08686089,34302.58492,519.8913399,237.5939534,2407.710312,438.6988324,2238.319545,955.1356487,3850.838943,2442.212727,1342.449255,524.5947954,1205.229548,535.9167703,2301.2297,1090.068839,2339.900772,3271.28961,5476.038133,559.6831672,1353.705513,0,0,13986,13906,13830,13840,13863,13893,13923,Lv 6
955,1654,403041081,41081,Happy Valley Reservoir,40304,Onkaparinga,403,Adelaide - South,4GADE,Greater Adelaide,4,South Australia,6.5089,138.5737036,-35.06767391,33541.02253,521.2865527,231.9702646,2357.053933,465.2117521,2162.155968,948.4760865,3661.3122,2368.148102,1333.390104,526.7263727,1217.367929,524.7934757,2274.050308,1061.891349,2366.184863,3153.275789,5339.580187,543.7727735,1304.382293,0,0,0,0,0,0,0,0,0,Lv 5
956,1659,403041086,41086,Reynella,40304,Onkaparinga,403,Adelaide - South,4GADE,Greater Adelaide,4,South Australia,7.7053,138.5323701,-35.0952219,35999.52413,520.0296418,233.6441913,2744.764934,443.9209703,2301.82041,1028.962795,4110.865344,2517.611574,1400.100562,541.6780549,1247.827577,542.1853941,2336.437483,1137.35783,2427.116686,3484.821885,5694.176016,561.2184598,1459.562081,0,0,10156,10192,10231,10245,10265,10318,10356,Lv 6
957,1655,403041082,41082,Lonsdale,40304,Onkaparinga,403,Adelaide - South,4GADE,Greater Adelaide,4,South Australia,9.84,138.4928752,-35.10677354,36645.35751,530.7935225,264.0375919,4171.490072,532.2919587,2898.404095,1236.052675,3760.942768,2294.219094,1597.857841,507.7318411,1106.782764,507.9727361,2217.875924,1155.256988,2252.279052,2994.384131,5106.019054,513.932612,1569.087223,0,0,28,29,30,30,30,30,30,Lv 6
958,1656,403041083,41083,McLaren Vale,40304,Onkaparinga,403,Adelaide - South,4GADE,Greater Adelaide,4,South Australia,119.5749,138.5654189,-35.20261162,23720.02587,755.7504825,186.5699818,2232.264937,273.8318856,1458.803815,659.6598501,2593.862087,1766.337548,927.8678565,341.6507943,788.459826,365.356842,1543.766744,748.2806236,1502.854072,2147.482208,3323.72518,354.5473182,878.5592294,0,0,6029,6071,6090,6151,6274,6474,6717,Lv 4
959,1657,403041084,41084,Morphett Vale - East,40304,Onkaparinga,403,Adelaide - South,4GADE,Greater Adelaide,4,South Australia,7.6836,138.5356806,-35.12006211,34154.55612,504.958054,223.8440356,2432.225388,419.7247509,2151.492,935.3745866,3868.552348,2444.338464,1304.234123,497.3867712,1164.262139,523.7154959,2230.026196,1093.404197,2278.502006,3549.235278,5494.50941,526.9093567,1334.478181,0,0,13744,13742,13739,13752,13731,13758,13783,Lv 6
960,1658,403041085,41085,Morphett Vale - West,40304,Onkaparinga,403,Adelaide - South,4GADE,Greater Adelaide,4,South Australia,5.0775,138.5155116,-35.12243205,32151.39386,495.3303149,212.5893348,2393.609815,383.3330698,2063.770896,897.8503519,3726.278284,2275.620567,1245.025462,478.9363132,1116.565568,508.8537007,2089.06813,1026.255812,2188.638484,2985.679218,5134.561269,512.2910016,1278.008256,0,0,9490,9539,9591,9662,9762,9873,10015,Lv 5
961,1661,403041088,41088,Willunga,40304,Onkaparinga,403,Adelaide - South,4GADE,Greater Adelaide,4,South Australia,85.1869,138.5423458,-35.28150454,22678.07085,574.0768645,170.2774512,1685.289417,263.4219463,1475.542475,660.9825653,2401.994027,1678.090573,969.0765276,353.7344555,780.4940491,349.7455057,1554.804026,708.1894477,1556.591233,2180.561249,3237.90611,355.5434968,872.4274289,0,0,3426,3448,3470,3504,3541,3582,3629,Lv 4
962,1662,403041089,41089,Woodcroft,40304,Onkaparinga,403,Adelaide - South,4GADE,Greater Adelaide,4,South Australia,13.5274,138.5691212,-35.10860396,30170.39439,532.2370297,206.8904947,2159.656258,366.0620976,1967.533061,845.8461026,3365.640555,2135.260762,1212.376387,467.8507575,1057.969645,465.1707114,2011.937284,977.0220654,2093.990853,2868.420689,4709.481778,480.2413695,1176.993526,0,0,11471,11519,11558,11599,11654,11727,11785,Lv 5
963,1663,404011090,41090,Beverley,40401,Charles Sturt,404,Adelaide - West,4GADE,Greater Adelaide,4,South Australia,4.2198,138.5370775,-34.88987701,58892.35377,614.699652,338.2913017,4865.500487,724.8806712,3885.189701,2051.352627,5927.462244,3744.970085,2774.061718,927.1525712,1969.124504,892.6881079,3720.806219,1879.449662,4354.642379,4639.305058,10231.34214,933.7984673,2325.318067,0,0,7675,7800,7936,8069,8252,8497,8778,Lv 9
964,1664,404011091,41091,Flinders Park,40401,Charles Sturt,404,Adelaide - West,4GADE,Greater Adelaide,4,South Australia,6.3834,138.5344533,-34.90672228,63095.36979,625.8165027,379.4800198,4614.935726,840.4774411,4019.759862,2204.804631,6535.833482,4178.106794,2918.326966,1119.22941,2447.891048,988.1531535,4457.220728,2045.144005,4811.930425,5397.925339,9687.309852,1097.698915,2565.987206,0,0,14663,14853,14866,14927,15094,15428,15712,Lv 9
965,1665,404011092,41092,Henley Beach,40401,Charles Sturt,404,Adelaide - West,4GADE,Greater Adelaide,4,South Australia,5.9563,138.5052969,-34.91789604,52806.24054,589.6333364,338.1016512,3623.140358,686.3255166,3240.803008,1543.045459,5659.281812,3890.748322,2305.226218,902.9626225,2086.909532,881.0570042,3779.618846,1698.793415,4105.736258,4773.714429,7970.390381,880.0727174,2067.546098,0,0,14982,15152,15273,15416,15614,15834,15995,Lv 8
966,1666,404011093,41093,Hindmarsh - Brompton,40401,Charles Sturt,404,Adelaide - West,4GADE,Greater Adelaide,4,South Australia,7.8961,138.5665023,-34.89775634,68996.36238,655.2701471,419.7661354,5770.294305,933.6099466,4719.982058,2461.019333,6890.942544,4598.327639,3142.574176,1248.45796,2447.451555,1005.766294,4824.300501,2332.613474,5245.024026,5581.440034,10166.34911,1230.819564,2906.760769,0,0,17972,18087,18158,18439,18594,18853,19106,Lv 10
967,1667,404011094,41094,Royal Park - Hendon - Albert Park,40401,Charles Sturt,404,Adelaide - West,4GADE,Greater Adelaide,4,South Australia,3.246,138.5130926,-34.87310387,49665.23886,588.9174776,297.4761024,4410.513106,622.5114234,3420.267643,1743.450132,5514.248923,3256.084836,2441.888569,766.4602382,1578.954356,784.7708256,3118.870483,1524.7591,3484.353027,4137.999622,7303.495667,819.5731031,2024.943601,0,0,5977,5992,6010,6022,6114,6215,6349,Lv 8
968,1668,404011095,41095,Seaton - Grange,40401,Charles Sturt,404,Adelaide - West,4GADE,Greater Adelaide,4,South Australia,8.2533,138.5063362,-34.89434191,50152.67355,590.4199323,303.5335774,3927.790442,626.5889447,3267.304409,1616.018115,5317.993153,3480.340146,2306.916326,790.3715427,1694.952077,821.3099766,3293.853686,1587.037014,3600.809501,4225.838149,8000.216467,880.3183751,2048.923989,0,0,16587,16699,16805,16900,17142,17250,17513,Lv 8
969,1669,404011096,41096,West Lakes,40401,Charles Sturt,404,Adelaide - West,4GADE,Greater Adelaide,4,South Australia,8.5515,138.4901399,-34.86881372,45559.2811,575.5124824,275.3455035,3603.286726,553.0036798,2920.31423,1426.69262,5697.465402,3318.708826,2078.706914,713.5412391,1518.241564,706.0820444,2882.387108,1434.212406,3115.97272,3743.269323,6658.842723,873.866339,1863.40173,0,0,14736,14789,14841,14899,14953,15063,15155,Lv 7
970,1671,404021098,41098,Dry Creek - South,40402,Port Adelaide - West,404,Adelaide - West,4GADE,Greater Adelaide,4,South Australia,6.1446,138.5460914,-34.82527736,43332.95403,613.6339308,290.1984048,3780.565394,630.7144788,2793.245638,1519.104744,4742.138702,2874.86776,2269.959793,674.1741573,1394.641413,649.5027582,2774.250367,1366.800151,3331.133402,3584.285379,6093.04896,675.1188091,1702.0616,0,0,0,0,0,0,0,0,0,Lv 7
971,1675,404021102,41102,The Parks,40402,Port Adelaide - West,404,Adelaide - West,4GADE,Greater Adelaide,4,South Australia,18.2633,138.5642176,-34.85639045,70077.76444,695.7081342,483.3967096,8533.969894,1346.512977,5097.735215,3315.416865,6543.346617,3861.969801,4607.767192,948.8683789,1964.664527,956.2014523,4004.63219,2239.56646,4713.718109,5183.238509,8605.903337,960.0392412,3213.740739,0,0,18945,18995,18960,18874,18925,19138,19341,Lv 10
972,1676,404021103,41103,Torrens Island,40402,Port Adelaide - West,404,Adelaide - West,4GADE,Greater Adelaide,4,South Australia,8.8253,138.528783,-34.79019268,28999.89233,494.6047988,202.7721612,2565.869109,502.0997899,1874.223133,924.8886038,3093.256926,1946.372728,1406.560961,446.5830414,950.4921089,437.0837585,1914.831388,902.7620953,2141.714636,2465.557148,4096.861381,452.8712386,1111.753045,0,0,6,4,3,3,3,3,3,Lv 5
973,1672,404021099,41099,Largs Bay - Semaphore,40402,Port Adelaide - West,404,Adelaide - West,4GADE,Greater Adelaide,4,South Australia,6.7241,138.4918492,-34.8362429,43573.18947,584.0277899,279.1692226,3875.21512,568.6527712,2864.332766,1433.919423,4768.1968,3135.398143,2300.191945,646.0220031,1306.750286,671.5346681,2691.630961,1357.277896,3091.468018,3677.725413,6296.24338,696.1951636,1753.626507,0,0,14969,14908,14824,14826,14895,14927,14994,Lv 7
974,1677,404031104,41104,Adelaide Airport,40403,West Torrens,404,Adelaide - West,4GADE,Greater Adelaide,4,South Australia,7.2952,138.5308021,-34.9461289,55752.07602,587.015023,397.8233991,3776.092224,738.2933652,3094.76281,1602.771135,6091.11598,3850.177503,4425.376785,944.9644594,2149.020091,954.772238,3909.288932,1832.628949,4619.388666,4340.051946,7768.373793,864.5589239,2016.917178,0,0,0,0,0,0,0,0,0,Lv 8
975,1673,404021100,41100,North Haven,40402,Port Adelaide - West,404,Adelaide - West,4GADE,Greater Adelaide,4,South Australia,14.8433,138.4992627,-34.79145601,37661.55432,538.3686545,224.8645077,4907.370953,491.5744114,2417.249076,1161.637086,3736.821705,2345.725854,2120.831797,507.4485204,1070.414951,506.4350923,2472.968662,1106.32608,2979.802734,3026.579949,4849.442295,541.3420904,1344.919602,0,0,14519,14542,14550,14584,14658,14760,14922,Lv 6
976,1674,404021101,41101,Port Adelaide,40402,Port Adelaide - West,404,Adelaide - West,4GADE,Greater Adelaide,4,South Australia,12.972,138.5196993,-34.84141994,57303.5007,660.921511,376.4459868,5168.220049,918.5054293,3684.117224,2107.103291,6802.497778,3776.921153,3837.830875,832.2048775,1667.901965,849.7706896,3295.927479,1797.92587,4474.244804,4275.946218,7500.108475,939.6347486,2248.619156,0,0,11037,11016,10987,10969,11026,11169,11361,Lv 9
977,1678,404031105,41105,Fulham,40403,West Torrens,404,Adelaide - West,4GADE,Greater Adelaide,4,South Australia,1.3212,138.5136818,-34.92736911,58262.81076,614.7705132,375.2313019,4030.362463,785.8550171,3558.781835,1746.707493,6071.422212,4163.985322,2618.348126,1022.727459,2456.238257,955.1598341,4240.982476,1910.789005,4660.980023,5025.284167,8793.292518,989.330401,2293.503018,0,0,2703,2723,2752,2762,2770,2779,2794,Lv 9
978,1680,404031107,41107,Plympton,40403,West Torrens,404,Adelaide - West,4GADE,Greater Adelaide,4,South Australia,10.6969,138.550445,-34.9577958,71656.69724,646.7244947,447.6974915,5126.113349,1937.615519,4534.097306,2218.779647,6784.851321,4551.246756,3182.084052,1460.911838,2657.357394,1175.345501,5065.382323,2320.405361,5707.60119,5793.32494,11776.89629,1185.552112,2712.387759,0,0,24324,24573,24828,24995,25160,25564,26057,Lv 10
979,1679,404031106,41106,Lockleys,40403,West Torrens,404,Adelaide - West,4GADE,Greater Adelaide,4,South Australia,5.702,138.5379475,-34.9254143,68570.72257,654.8066007,435.3644325,4773.418164,967.4225524,4176.478911,2165.059805,6822.326078,4608.28057,3153.861025,1247.447066,3323.334319,1119.598086,5086.440044,2321.386147,5648.961211,5729.81736,10170.41428,1169.046099,2727.371322,0,0,12933,13011,13016,12975,13108,13237,13424,Lv 10
980,1681,404031108,41108,Richmond (SA),40403,West Torrens,404,Adelaide - West,4GADE,Greater Adelaide,4,South Australia,8.9253,138.5660363,-34.92788249,90563.40051,729.3980367,609.3469075,6540.890811,1267.175611,5251.711623,2795.665395,8796.108809,5906.269301,4221.308641,1856.948782,4150.259161,1403.967039,7379.490924,3308.194319,8238.56778,7155.075935,12583.04131,1549.73714,3883.41513,0,0,16898,16948,16975,17008,17169,17277,17499,Lv 12
981,1682,404031109,41109,West Beach,40403,West Torrens,404,Adelaide - West,4GADE,Greater Adelaide,4,South Australia,4.4582,138.5093464,-34.94597431,47685.00342,574.5821805,320.4084244,3260.192233,625.4555108,2935.11044,1383.479241,5018.337465,3448.224887,2082.320197,815.4563956,1887.66359,770.1051785,3494.695968,1546.557253,3827.365343,4113.900719,7239.452777,843.9880178,1868.176467,0,0,4969,5058,5118,5153,5192,5218,5266,Lv 7
